$GNGGA,192855.00,4948.715492,N,09707.475725,W,1,12,0.7,233.0,M,-30.0,M,,*48
$GPGSV,2,1,08,02,52,223,30,03,12,033,33,06,79,092,38,12,52,298,31*7A
$GPGSV,2,2,08,17,37,087,37,19,55,078,37,25,14,313,,28,01,142,*74
$GLGSV,2,1,08,74,30,323,25,66,20,030,31,82,40,053,31,80,21,192,25*64
$GLGSV,2,2,08,67,24,085,33,68,03,133,31,84,19,260,,83,69,316,*69
$GAGSV,1,1,0,*74
$PQGSV,1,1,0,*73
$PQGSV,1,1,0,*73
$GNGSA,A,3,02,03,06,12,17,19,25,,,,,,1.1,0.7,0.8,1*33
$GNGSA,A,3,66,67,74,80,82,,,,,,,,1.1,0.7,0.8,2*3D
$GNVTG,,T,,M,0.0,N,0.0,K,A*3D
$GNRMC,192856.00,A,4948.715493,N,09707.475723,W,0.0,,270619,2.0,E,A*1A
$GNGGA,192856.00,4948.715493,N,09707.475723,W,1,12,0.7,233.0,M,-30.0,M,,*4C
$GPGSV,3,1,09,02,52,223,30,03,12,033,33,06,79,092,38,12,52,298,31*7A
$GPGSV,3,2,09,17,37,087,37,19,55,078,36,24,20,244,24,25,14,313,*79
$GPGSV,3,3,09,28,01,142,*4C
$GLGSV,3,1,09,74,30,323,25,66,20,030,30,82,40,053,33,80,21,192,25*67
$GLGSV,3,2,09,67,24,085,31,68,03,133,30,73,54,265,,84,19,260,*6E
$GLGSV,3,3,09,83,69,316,*5C
$GAGSV,1,1,0,*74
$PQGSV,1,1,0,*73
$PQGSV,1,1,0,*73
$GNGSA,A,3,02,03,06,12,17,19,24,25,,,,,1.1,0.8,0.8,1*3A
$GNGSA,A,3,66,67,73,74,80,82,,,,,,,1.1,0.8,0.8,2*36
$GNVTG,,T,,M,0.0,N,0.0,K,A*3D
$GNRMC,192857.00,A,4948.715492,N,09707.475720,W,0.0,,270619,2.0,E,A*19
$GNGGA,192857.00,4948.715492,N,09707.475720,W,1,12,0.8,233.0,M,-30.0,M,,*40
$GPGSV,3,1,09,02,52,223,31,03,12,033,34,06,79,092,38,12,52,298,31*7C
$GPGSV,3,2,09,17,37,087,38,19,55,078,37,24,20,244,24,25,14,313,*77
$GPGSV,3,3,09,28,01,142,*4C
$GLGSV,3,1,09,74,30,323,27,66,20,030,32,82,40,053,34,80,21,192,25*60
$GLGSV,3,2,09,67,24,085,30,68,03,133,30,73,54,265,,84,19,260,*6F
$GLGSV,3,3,09,83,69,316,*5C
$GAGSV,1,1,0,*74
$PQGSV,1,1,0,*73
$PQGSV,1,1,0,*73
$GNGSA,A,3,02,03,06,12,17,19,24,,,,,,1.1,0.8,0.8,1*3D
$GNGSA,A,3,66,67,73,74,80,82,,,,,,,1.1,0.8,0.8,2*36
$GNVTG,,T,,M,0.0,N,0.0,K,A*3D
$GNRMC,192858.00,A,4948.715492,N,09707.475720,W,0.0,,270619,2.0,E,A*16
$GNGGA,192858.00,4948.715492,N,09707.475720,W,1,12,0.8,233.0,M,-30.0,M,,*4F
$GPGSV,3,1,09,02,52,223,34,03,12,033,35,06,79,092,40,12,52,298,31*77
$GPGSV,3,2,09,17,37,087,39,19,55,078,39,24,20,244,26,25,14,313,*7A
$GPGSV,3,3,09,28,01,142,*4C
$GLGSV,2,1,06,66,20,030,37,82,40,053,37,67,24,085,35,73,54,265,*61
$GLGSV,2,2,06,84,19,260,,83,69,316,*63
$GAGSV,1,1,0,*74
$PQGSV,1,1,0,*73
$PQGSV,1,1,0,*73
$GNGSA,A,3,02,03,06,12,17,19,24,,,,,,1.1,0.8,0.8,1*3D
$GNGSA,A,3,66,67,73,82,,,,,,,,,1.1,0.8,0.8,2*3D
$GNVTG,,T,,M,0.0,N,0.0,K,A*3D
$GNRMC,192859.00,A,4948.715492,N,09707.475719,W,0.0,,270619,2.0,E,A*1D
$GNGGA,192859.00,4948.715492,N,09707.475719,W,1,11,0.8,233.0,M,-30.0,M,,*47
$GPGSV,3,1,09,02,52,223,33,03,12,033,34,06,79,092,40,12,52,298,32*72
$GPGSV,3,2,09,17,37,087,40,19,55,078,40,24,20,244,29,25,14,313,*75
$GPGSV,3,3,09,28,01,142,*4C
$GLGSV,3,1,09,74,30,323,28,66,20,030,34,82,40,053,36,73,54,265,25*6E
$GLGSV,3,2,09,80,21,192,28,67,24,085,32,68,03,133,30,84,19,260,*62
$GLGSV,3,3,09,83,69,316,*5C
$GAGSV,1,1,0,*74
$PQGSV,1,1,0,*73
$PQGSV,1,1,0,*73
$GNGSA,A,3,02,03,06,12,17,19,24,,,,,,1.1,0.8,0.8,1*3D
$GNGSA,A,3,66,67,73,74,80,82,,,,,,,1.1,0.8,0.8,2*36
$GNVTG,,T,,M,0.0,N,0.0,K,A*3D
$GNRMC,192900.00,A,4948.715492,N,09707.475719,W,0.0,,270619,2.0,E,A*10
$GNGGA,192900.00,4948.715492,N,09707.475719,W,1,12,0.8,233.0,M,-30.0,M,,*49
$GPGSV,2,1,08,02,52,223,33,03,12,033,36,06,79,092,41,12,52,298,36*75
$GPGSV,2,2,08,17,37,087,41,19,55,078,39,25,14,313,,28,01,142,*7B
$GLGSV,2,1,08,74,30,323,26,66,20,030,37,82,40,053,37,80,21,192,27*65
$GLGSV,2,2,08,67,24,085,34,68,03,133,30,84,19,260,,83,69,316,*6F
$GAGSV,1,1,0,*74
$PQGSV,1,1,0,*73
$PQGSV,1,1,0,*73
$GNGSA,A,3,02,03,06,12,17,19,,,,,,,1.1,0.8,0.8,1*3B
$GNGSA,A,3,66,67,74,80,82,,,,,,,,1.1,0.8,0.8,2*32
$GNVTG,,T,,M,0.0,N,0.0,K,A*3D
$GNRMC,192901.00,A,4948.715492,N,09707.475717,W,0.0,,270619,2.0,E,A*1F
$GNGGA,192901.00,4948.715492,N,09707.475717,W,1,11,0.8,233.0,M,-30.0,M,,*45
$GPGSV,3,1,09,02,52,223,31,03,12,033,35,06,79,092,41,12,52,298,33*71
$GPGSV,3,2,09,17,37,087,38,19,55,078,41,24,20,244,,25,14,313,*70
$GPGSV,3,3,09,28,01,142,*4C
$GLGSV,2,1,08,66,20,030,36,82,40,053,38,80,21,192,30,84,19,260,27*6E
$GLGSV,2,2,08,67,24,085,35,68,03,133,29,73,54,265,,83,69,316,*62
$GAGSV,1,1,0,*74
$PQGSV,1,1,0,*73
$PQGSV,1,1,0,*73
$GNGSA,A,3,02,03,06,12,17,19,24,,,,,,1.1,0.8,0.8,1*3D
$GNGSA,A,3,66,67,73,80,82,,,,,,,,1.1,0.8,0.8,2*35
$GNVTG,,T,,M,0.0,N,0.0,K,A*3D
$GNRMC,192902.00,A,4948.715493,N,09707.475716,W,0.0,,270619,2.0,E,A*1C
$GNGGA,192902.00,4948.715493,N,09707.475716,W,1,12,0.8,233.0,M,-30.0,M,,*45
$GPGSV,3,1,09,02,52,223,32,03,12,033,36,06,79,092,41,12,52,298,34*76
$GPGSV,3,2,09,17,37,087,39,19,55,078,41,24,20,244,,25,14,313,*71
$GPGSV,3,3,09,28,01,142,*4C
$GLGSV,3,1,09,74,30,323,27,66,20,030,34,82,40,053,37,80,21,192,30*61
$GLGSV,3,2,09,84,19,260,29,67,24,085,35,68,03,133,29,73,54,265,*69
$GLGSV,3,3,09,83,69,316,*5C
$GAGSV,1,1,0,*74
$PQGSV,1,1,0,*73
$PQGSV,1,1,0,*73
$GNGSA,A,3,02,03,06,12,17,19,24,,,,,,1.1,0.8,0.8,1*3D
$GNGSA,A,3,66,67,73,74,80,82,84,,,,,,1.1,0.8,0.8,2*3A
$GNVTG,,T,,M,0.0,N,0.0,K,A*3D
$GNRMC,192903.00,A,4948.715495,N,09707.475713,W,0.0,,270619,2.0,E,A*1E
$GNGGA,192903.00,4948.715495,N,09707.475713,W,1,12,0.8,233.0,M,-30.0,M,,*47
$GPGSV,3,1,09,02,52,223,30,03,12,033,35,06,79,092,41,12,52,298,35*76
$GPGSV,3,2,09,17,37,087,39,19,55,078,41,24,20,244,,25,14,313,*71
$GPGSV,3,3,09,28,01,142,*4C
$GLGSV,3,1,09,74,30,323,26,66,20,030,35,82,40,053,37,80,21,192,30*61
$GLGSV,3,2,09,84,19,260,28,67,24,085,35,68,03,133,29,73,54,265,*68
$GLGSV,3,3,09,83,69,316,*5C
$GAGSV,1,1,0,*74
$PQGSV,1,1,0,*73
$PQGSV,1,1,0,*73
$GNGSA,A,3,02,03,06,12,17,19,24,,,,,,1.1,0.8,0.8,1*3D
$GNGSA,A,3,66,67,73,74,80,82,84,,,,,,1.1,0.8,0.8,2*3A
$GNVTG,,T,,M,0.0,N,0.0,K,A*3D
$GNRMC,192904.00,A,4948.715496,N,09707.475708,W,0.0,,270619,2.0,E,A*10
$GNGGA,192904.00,4948.715496,N,09707.475708,W,1,12,0.8,233.0,M,-30.0,M,,*49
$GPGSV,3,1,09,02,52,223,31,03,12,033,35,06,79,092,41,12,52,298,34*76
$GPGSV,3,2,09,17,37,087,39,19,55,078,41,24,20,244,24,25,14,313,*77
$GPGSV,3,3,09,28,01,142,*4C
$GLGSV,3,1,09,74,30,323,26,66,20,030,35,82,40,053,37,80,21,192,30*61
$GLGSV,3,2,09,84,19,260,29,67,24,085,36,68,03,133,29,73,54,265,*6A
$GLGSV,3,3,09,83,69,316,*5C
$GAGSV,1,1,0,*74
$PQGSV,1,1,0,*73
$PQGSV,1,1,0,*73
$GNGSA,A,3,02,03,06,12,17,19,24,,,,,,1.1,0.8,0.8,1*3D
$GNGSA,A,3,66,67,73,74,80,82,84,,,,,,1.1,0.8,0.8,2*3A
$GNVTG,,T,,M,0.0,N,0.0,K,A*3D
$GNRMC,192905.00,A,4948.715496,N,09707.475704,W,0.0,,270619,2.0,E,A*1D
$GNGGA,192905.00,4948.715496,N,09707.475704,W,1,12,0.8,233.0,M,-30.0,M,,*44
$GPGSV,3,1,09,02,52,223,31,03,12,033,34,06,79,092,41,12,52,298,36*75
$GPGSV,3,2,09,17,37,087,39,19,55,078,41,24,20,244,26,25,14,313,*75
$GPGSV,3,3,09,28,01,142,*4C
$GLGSV,2,1,08,66,20,030,34,82,40,053,35,73,54,265,30,80,21,192,31*62
$GLGSV,2,2,08,84,19,260,27,67,24,085,38,68,03,133,27,83,69,316,*60
$GAGSV,1,1,0,*74
$PQGSV,1,1,0,*73
$PQGSV,1,1,0,*73
$GNGSA,A,3,02,03,06,12,17,19,24,,,,,,1.1,0.8,0.8,1*3D
$GNGSA,A,3,66,67,73,80,82,84,,,,,,,1.1,0.8,0.8,2*39
$GNVTG,,T,,M,0.0,N,0.0,K,A*3D
$GNRMC,192906.00,A,4948.715496,N,09707.475702,W,0.0,,270619,2.0,E,A*18
$GNGGA,192906.00,4948.715496,N,09707.475702,W,1,12,0.8,233.0,M,-30.0,M,,*41
$GPGSV,3,1,09,02,52,223,29,03,12,033,33,06,79,092,41,12,52,298,32*7F
$GPGSV,3,2,09,17,37,087,40,19,55,078,40,24,20,244,28,25,14,313,*74
$GPGSV,3,3,09,28,01,142,*4C
$GLGSV,2,1,08,66,20,030,37,82,40,053,34,73,54,265,31,80,21,192,31*61
$GLGSV,2,2,08,67,24,085,38,68,03,133,29,74,30,323,,83,69,316,*69
$GAGSV,1,1,0,*74
$PQGSV,1,1,0,*73
$PQGSV,1,1,0,*73
$GNGSA,A,3,02,03,06,12,17,19,24,,,,,,1.1,0.8,0.8,1*3D
$GNGSA,A,3,66,67,73,74,80,82,,,,,,,1.1,0.8,0.8,2*36
$GNVTG,336.4,T,336.4,M,1.4,N,2.6,K,A*3C
$GNRMC,192907.00,A,4948.715601,N,09707.475752,W,1.4,336.4,270619,2.0,E,A*39
$GNGGA,192907.00,4948.715601,N,09707.475752,W,1,12,0.8,232.0,M,-30.0,M,,*48
$GPGSV,3,1,09,02,52,223,30,03,12,033,34,06,79,092,40,12,52,298,30*73
$GPGSV,3,2,09,17,37,087,40,19,55,078,41,24,20,244,29,25,14,313,23*75
$GPGSV,3,3,09,28,01,142,*4C
$GLGSV,3,1,09,74,30,323,28,66,20,030,37,82,40,053,35,73,54,265,28*63
$GLGSV,3,2,09,80,21,192,31,84,19,260,26,67,24,085,38,68,03,133,27*62
$GLGSV,3,3,09,83,69,316,*5C
$GAGSV,1,1,0,*74
$PQGSV,1,1,0,*73
$PQGSV,1,1,0,*73
$GNGSA,A,3,02,03,06,12,17,19,24,,,,,,1.0,0.7,0.8,1*33
$GNGSA,A,3,66,67,73,74,80,82,84,,,,,,1.0,0.7,0.8,2*34
$GNVTG,336.5,T,336.5,M,2.0,N,3.8,K,A*34
$GNRMC,192908.00,A,4948.716078,N,09707.475982,W,2.0,336.5,270619,2.0,E,A*38
$GNGGA,192908.00,4948.716078,N,09707.475982,W,1,12,0.7,233.0,M,-30.0,M,,*41
$GPGSV,2,1,08,02,52,223,26,03,12,033,33,06,79,092,41,12,52,298,34*76
$GPGSV,2,2,08,17,37,087,40,19,55,078,39,24,20,244,28,28,01,142,*75
$GLGSV,3,1,09,74,30,323,24,66,20,030,36,82,40,053,32,73,54,265,25*64
$GLGSV,3,2,09,80,21,192,28,84,19,260,24,67,24,085,38,68,03,133,25*6A
$GLGSV,3,3,09,83,69,316,*5C
$GAGSV,1,1,0,*74
$PQGSV,1,1,0,*73
$PQGSV,1,1,0,*73
$GNGSA,A,3,02,03,06,12,17,19,24,,,,,,1.0,0.7,0.8,1*33
$GNGSA,A,3,66,67,73,74,80,82,84,,,,,,1.0,0.7,0.8,2*34
$GNVTG,,T,,M,0.0,N,0.0,K,A*3D
$GNRMC,192909.00,A,4948.716336,N,09707.475991,W,0.0,,270619,2.0,E,A*1D
$GNGGA,192909.00,4948.716336,N,09707.475991,W,1,12,0.7,233.0,M,-30.0,M,,*4B
$GPGSV,3,1,09,02,52,223,25,03,12,033,34,06,79,092,41,12,52,298,36*70
$GPGSV,3,2,09,17,37,087,40,19,55,078,40,24,20,244,27,25,14,313,*7B
$GPGSV,3,3,09,28,01,142,*4C
$GLGSV,3,1,09,74,30,323,24,66,20,030,35,82,40,053,32,73,54,265,27*65
$GLGSV,3,2,09,80,21,192,28,84,19,260,25,67,24,085,38,68,03,133,27*69
$GLGSV,3,3,09,83,69,316,*5C
$GAGSV,1,1,0,*74
$PQGSV,1,1,0,*73
$PQGSV,1,1,0,*73
$GNGSA,A,3,02,03,06,12,17,19,24,25,,,,,1.0,0.7,0.8,1*34
$GNGSA,A,3,66,67,73,74,80,82,84,,,,,,1.0,0.7,0.8,2*34
$GNVTG,,T,,M,0.0,N,0.0,K,A*3D
$GNRMC,192910.00,A,4948.716359,N,09707.475823,W,0.0,,270619,2.0,E,A*14
$GNGGA,192910.00,4948.716359,N,09707.475823,W,1,12,0.7,233.0,M,-30.0,M,,*42
$GPGSV,3,1,09,02,52,223,27,03,12,033,33,06,79,092,39,12,52,298,34*78
$GPGSV,3,2,09,17,37,087,40,19,55,078,39,24,20,244,28,25,14,313,*7A
$GPGSV,3,3,09,28,01,142,*4C
$GLGSV,2,1,08,74,30,323,23,66,20,030,35,82,40,053,35,73,54,265,28*6A
$GLGSV,2,2,08,80,21,192,27,84,19,260,26,67,24,085,37,83,69,316,*63
$GAGSV,1,1,0,*74
$PQGSV,1,1,0,*73
$PQGSV,1,1,0,*73
$GNGSA,A,3,02,03,06,12,17,19,24,25,,,,,1.0,0.7,0.8,1*34
$GNGSA,A,3,66,67,73,74,80,82,84,,,,,,1.0,0.7,0.8,2*34
$GNVTG,336.1,T,336.1,M,1.4,N,2.6,K,A*3C
$GNRMC,192911.00,A,4948.716560,N,09707.475847,W,1.4,336.1,270619,2.0,E,A*37
$GNGGA,192911.00,4948.716560,N,09707.475847,W,1,12,0.7,233.0,M,-30.0,M,,*4D
$GPGSV,3,1,09,02,52,223,29,03,12,033,32,06,79,092,38,12,52,298,31*73
$GPGSV,3,2,09,17,37,087,39,19,55,078,39,24,20,244,27,25,14,313,*7B
$GPGSV,3,3,09,28,01,142,*4C
$GLGSV,3,1,09,74,30,323,23,66,20,030,33,82,40,053,33,73,54,265,29*6B
$GLGSV,3,2,09,80,21,192,28,84,19,260,24,67,24,085,36,68,03,133,24*65
$GLGSV,3,3,09,83,69,316,*5C
$GAGSV,1,1,0,*74
$PQGSV,1,1,0,*73
$PQGSV,1,1,0,*73
$GNGSA,A,3,02,03,06,12,17,19,24,25,,,,,1.0,0.7,0.8,1*34
$GNGSA,A,3,66,67,73,74,80,82,84,,,,,,1.0,0.7,0.8,2*34
$GNVTG,326.2,T,326.2,M,2.3,N,4.2,K,A*3A
$GNRMC,192912.00,A,4948.717019,N,09707.476170,W,2.3,326.2,270619,2.0,E,A*36
$GNGGA,192912.00,4948.717019,N,09707.476170,W,1,12,0.7,233.0,M,-30.0,M,,*4A
$GPGSV,3,1,09,02,52,223,27,03,12,033,34,06,79,092,38,12,52,298,33*79
$GPGSV,3,2,09,17,37,087,40,19,55,078,39,24,20,244,26,25,14,313,*74
$GPGSV,3,3,09,28,01,142,*4C
$GLGSV,2,1,08,66,20,030,34,82,40,053,35,73,54,265,27,80,21,192,27*63
$GLGSV,2,2,08,84,19,260,26,67,24,085,36,68,03,133,27,83,69,316,*6F
$GAGSV,1,1,0,*74
$PQGSV,1,1,0,*73
$PQGSV,1,1,0,*73
$GNGSA,A,3,02,03,06,12,17,19,24,25,,,,,1.0,0.7,0.8,1*34
$GNGSA,A,3,66,67,73,80,82,84,,,,,,,1.0,0.7,0.8,2*37
$GNVTG,333.0,T,333.0,M,2.7,N,4.9,K,A*35
$GNRMC,192913.00,A,4948.717614,N,09707.476617,W,2.7,333.0,270619,2.0,E,A*38
$GNGGA,192913.00,4948.717614,N,09707.476617,W,1,12,0.7,233.0,M,-30.0,M,,*46
$GPGSV,3,1,09,02,52,223,26,03,12,033,32,06,79,088,38,12,52,298,33*75
$GPGSV,3,2,09,17,37,087,39,19,54,080,39,24,19,244,27,25,15,313,*76
$GPGSV,3,3,09,28,00,000,*4A
$GLGSV,3,1,09,66,20,030,33,82,40,053,34,73,54,265,29,80,21,192,25*69
$GLGSV,3,2,09,84,19,260,27,67,24,085,35,68,03,133,29,74,30,323,*61
$GLGSV,3,3,09,83,69,316,*5C
$GAGSV,1,1,0,*74
$PQGSV,1,1,0,*73
$PQGSV,1,1,0,*73
$GNGSA,A,3,02,03,06,12,17,19,24,25,,,,,1.1,0.8,0.8,1*3A
$GNGSA,A,3,66,67,73,74,80,82,84,,,,,,1.1,0.8,0.8,2*3A
$GNVTG,333.4,T,333.4,M,2.8,N,5.2,K,A*30
$GNRMC,192914.00,A,4948.718333,N,09707.477163,W,2.8,333.4,270619,2.0,E,A*3E
$GNGGA,192914.00,4948.718333,N,09707.477163,W,1,12,0.8,233.0,M,-30.0,M,,*44
$GPGSV,3,1,09,02,52,223,27,03,12,033,32,06,79,088,39,12,52,298,33*75
$GPGSV,3,2,09,17,37,087,39,19,54,080,39,24,19,244,28,25,15,313,*79
$GPGSV,3,3,09,28,00,000,*4A
$GLGSV,3,1,09,66,20,030,33,82,40,053,34,73,54,265,29,80,21,192,26*6A
$GLGSV,3,2,09,84,19,260,26,67,24,085,36,68,03,133,30,74,30,323,*6B
$GLGSV,3,3,09,83,69,316,*5C
$GAGSV,1,1,0,*74
$PQGSV,1,1,0,*73
$PQGSV,1,1,0,*73
$GNGSA,A,3,02,03,06,12,17,19,24,,,,,,1.1,0.8,0.8,1*3D
$GNGSA,A,3,66,67,73,74,80,82,84,,,,,,1.1,0.8,0.8,2*3A
$GNVTG,338.0,T,338.0,M,2.8,N,5.1,K,A*33
$GNRMC,192915.00,A,4948.719140,N,09707.477697,W,2.8,338.0,270619,2.0,E,A*3B
$GNGGA,192915.00,4948.719140,N,09707.477697,W,1,12,0.8,233.0,M,-30.0,M,,*4E
$GPGSV,3,1,09,02,52,223,27,03,12,033,32,06,79,088,37,12,52,298,34*7C
$GPGSV,3,2,09,17,37,087,41,19,54,080,40,24,19,244,28,25,15,313,*78
$GPGSV,3,3,09,28,00,000,*4A
$GLGSV,3,1,09,74,30,323,26,66,20,030,32,82,40,053,34,73,54,265,32*62
$GLGSV,3,2,09,80,21,192,29,84,19,260,26,67,24,085,37,68,03,133,31*63
$GLGSV,3,3,09,83,69,316,*5C
$GAGSV,1,1,0,*74
$PQGSV,1,1,0,*73
$PQGSV,1,1,0,*73
$GNGSA,A,3,02,03,06,12,17,19,24,,,,,,1.1,0.8,0.8,1*3D
$GNGSA,A,3,66,67,73,74,80,82,84,,,,,,1.1,0.8,0.8,2*3A
$GNVTG,337.8,T,337.8,M,2.9,N,5.4,K,A*37
$GNRMC,192916.00,A,4948.719987,N,09707.478246,W,2.9,337.8,270619,2.0,E,A*3A
$GNGGA,192916.00,4948.719987,N,09707.478246,W,1,12,0.8,233.0,M,-30.0,M,,*49
$GPGSV,2,1,08,03,12,033,32,06,79,088,39,12,52,298,36,17,37,087,42*78
$GPGSV,2,2,08,19,54,080,42,24,19,244,32,25,15,313,,28,00,000,*73
$GLGSV,2,1,07,66,20,030,36,82,40,053,37,73,54,265,34,80,21,192,30*68
$GLGSV,2,2,07,67,24,085,38,68,03,133,32,83,69,316,*5E
$GAGSV,1,1,0,*74
$PQGSV,1,1,0,*73
$PQGSV,1,1,0,*73
$GNGSA,A,3,03,06,12,17,19,24,,,,,,,1.1,0.8,0.8,1*3F
$GNGSA,A,3,66,67,73,80,82,,,,,,,,1.1,0.8,0.8,2*35
$GNVTG,336.1,T,336.1,M,3.1,N,5.7,K,A*3D
$GNRMC,192917.00,A,4948.720991,N,09707.478806,W,3.1,336.1,270619,2.0,E,A*39
$GNGGA,192917.00,4948.720991,N,09707.478806,W,1,11,0.8,233.0,M,-30.0,M,,*48
$GPGSV,3,1,09,02,52,223,27,03,12,033,33,06,79,088,39,12,52,298,36*71
$GPGSV,3,2,09,17,37,087,40,19,54,080,42,24,19,244,33,25,15,313,*71
$GPGSV,3,3,09,28,00,000,*4A
$GLGSV,3,1,09,74,30,323,24,66,20,030,34,82,40,053,36,73,54,265,36*60
$GLGSV,3,2,09,80,21,192,30,84,19,260,25,83,69,316,25,67,24,085,38*6E
$GLGSV,3,3,09,68,03,133,33*50
$GAGSV,1,1,0,*74
$PQGSV,1,1,0,*73
$PQGSV,1,1,0,*73
$GNGSA,A,3,02,03,06,12,17,19,24,,,,,,1.1,0.8,0.7,1*32
$GNGSA,A,3,66,67,73,74,80,82,84,,,,,,1.1,0.8,0.7,2*35
$GNVTG,336.3,T,336.3,M,2.9,N,5.3,K,A*30
$GNRMC,192918.00,A,4948.721955,N,09707.479305,W,2.9,336.3,270619,2.0,E,A*3D
$GNGGA,192918.00,4948.721955,N,09707.479305,W,1,12,0.8,233.0,M,-30.0,M,,*44
$GPGSV,3,1,09,02,52,223,26,03,12,033,31,06,79,088,39,12,52,298,35*71
$GPGSV,3,2,09,17,37,087,40,19,54,080,41,24,19,244,32,25,15,313,*73
$GPGSV,3,3,09,28,00,000,*4A
$GLGSV,2,1,06,66,19,029,35,82,39,053,35,73,54,262,35,80,21,191,31*60
$GLGSV,2,2,06,67,25,085,38,68,04,133,31*6A
$GAGSV,1,1,0,*74
$PQGSV,1,1,0,*73
$PQGSV,1,1,0,*73
$GNGSA,A,3,02,03,06,12,17,19,24,,,,,,1.1,0.8,0.7,1*32
$GNGSA,A,3,66,67,73,80,82,,,,,,,,1.1,0.8,0.7,2*3A
$GNVTG,333.5,T,333.5,M,2.8,N,5.3,K,A*31
$GNRMC,192919.00,A,4948.722918,N,09707.479849,W,2.8,333.5,270619,2.0,E,A*37
$GNGGA,192919.00,4948.722918,N,09707.479849,W,1,12,0.8,233.0,M,-30.0,M,,*4C
$GPGSV,3,1,09,02,52,223,29,03,12,033,31,06,79,088,39,12,52,298,34*7F
$GPGSV,3,2,09,17,37,087,39,19,54,080,40,24,19,244,33,25,15,313,*7D
$GPGSV,3,3,09,28,00,000,*4A
$GLGSV,3,1,09,74,30,323,25,66,19,029,34,82,39,053,34,73,54,262,35*6B
$GLGSV,3,2,09,80,21,191,31,67,25,085,37,68,04,133,29,84,20,260,*68
$GLGSV,3,3,09,83,69,319,*53
$GAGSV,1,1,0,*74
$PQGSV,1,1,0,*73
$PQGSV,1,1,0,*73
$GNGSA,A,3,02,03,06,12,17,19,24,,,,,,1.1,0.8,0.7,1*32
$GNGSA,A,3,66,67,73,74,80,82,83,84,,,,,1.1,0.8,0.7,2*3E
$GNVTG,333.3,T,333.3,M,2.9,N,5.4,K,A*37
$GNRMC,192920.00,A,4948.723724,N,09707.480437,W,2.9,333.3,270619,2.0,E,A*39
$GNGGA,192920.00,4948.723724,N,09707.480437,W,1,12,0.8,232.0,M,-30.0,M,,*44
$GPGSV,3,1,09,02,52,223,28,03,12,033,31,06,79,088,39,12,52,298,34*7E
$GPGSV,3,2,09,17,37,087,39,19,54,080,40,24,19,244,31,25,15,313,*7F
$GPGSV,3,3,09,28,00,000,*4A
$GLGSV,2,1,08,66,19,029,33,82,39,053,33,73,54,262,34,80,21,191,31*6F
$GLGSV,2,2,08,83,69,319,24,67,25,085,37,68,04,133,31,84,20,260,*68
$GAGSV,1,1,0,*74
$PQGSV,1,1,0,*73
$PQGSV,1,1,0,*73
$GNGSA,A,3,02,03,06,12,17,19,24,,,,,,1.1,0.8,0.7,1*32
$GNGSA,A,3,66,67,73,80,82,83,84,,,,,,1.1,0.8,0.7,2*3D
$GNVTG,334.0,T,334.0,M,2.7,N,5.0,K,A*3D
$GNRMC,192921.00,A,4948.724537,N,09707.481020,W,2.7,334.0,270619,2.0,E,A*36
$GNGGA,192921.00,4948.724537,N,09707.481020,W,1,12,0.8,233.0,M,-30.0,M,,*40
$GPGSV,3,1,09,02,52,223,28,03,12,033,33,06,79,088,40,12,52,298,35*73
$GPGSV,3,2,09,17,37,087,40,19,54,080,41,24,19,244,33,25,15,313,25*75
$GPGSV,3,3,09,28,00,000,*4A
$GLGSV,3,1,09,74,30,323,25,66,19,029,34,82,39,053,35,73,54,262,36*69
$GLGSV,3,2,09,80,21,191,31,83,69,319,25,67,25,085,38,68,04,133,28*64
$GLGSV,3,3,09,84,20,260,*56
$GAGSV,1,1,0,*74
$PQGSV,1,1,0,*73
$PQGSV,1,1,0,*73
$GNGSA,A,3,02,03,06,12,17,19,24,,,,,,1.0,0.7,0.7,1*3C
$GNGSA,A,3,66,67,73,74,80,82,83,84,,,,,1.0,0.7,0.7,2*30
$GNVTG,334.1,T,334.1,M,2.8,N,5.1,K,A*33
$GNRMC,192922.00,A,4948.725267,N,09707.481548,W,2.8,334.1,270619,2.0,E,A*33
$GNGGA,192922.00,4948.725267,N,09707.481548,W,1,12,0.7,233.0,M,-30.0,M,,*44
$GPGSV,2,1,08,02,52,223,28,03,12,033,31,06,79,088,39,12,52,298,34*7E
$GPGSV,2,2,08,17,37,087,39,19,54,080,40,24,19,244,32,28,00,000,*74
$GLGSV,2,1,08,74,30,323,24,66,19,029,33,82,39,053,34,73,54,262,35*6D
$GLGSV,2,2,08,80,21,191,31,67,25,085,36,68,04,133,30,84,20,260,*61
$GAGSV,1,1,0,*74
$PQGSV,1,1,0,*73
$PQGSV,1,1,0,*73
$GNGSA,A,3,02,03,06,12,17,19,24,,,,,,1.0,0.7,0.7,1*3C
$GNGSA,A,3,66,67,73,74,80,82,84,,,,,,1.0,0.7,0.7,2*3B
$GNVTG,336.0,T,336.0,M,3.0,N,5.5,K,A*3E
$GNRMC,192923.00,A,4948.726032,N,09707.482040,W,3.0,336.0,270619,2.0,E,A*37
$GNGGA,192923.00,4948.726032,N,09707.482040,W,1,12,0.7,233.0,M,-30.0,M,,*4A
$GPGSV,3,1,09,02,52,223,26,03,12,033,33,06,79,088,40,12,52,298,34*7C
$GPGSV,3,2,09,17,37,087,38,19,54,080,40,24,19,244,32,25,15,313,*7D
$GPGSV,3,3,09,28,00,000,*4A
$GLGSV,3,1,09,74,30,323,24,66,19,029,33,82,39,053,34,73,54,262,35*6D
$GLGSV,3,2,09,80,21,191,30,83,69,319,22,67,25,085,35,68,04,133,29*6E
$GLGSV,3,3,09,84,20,260,*56
$GAGSV,1,1,0,*74
$PQGSV,1,1,0,*73
$PQGSV,1,1,0,*73
$GNGSA,A,3,02,03,06,12,17,19,24,25,,,,,1.0,0.7,0.7,1*3B
$GNGSA,A,3,66,67,73,74,80,82,83,84,,,,,1.0,0.7,0.7,2*30
$GNVTG,335.9,T,335.9,M,2.9,N,5.4,K,A*37
$GNRMC,192924.00,A,4948.726802,N,09707.482547,W,2.9,335.9,270619,2.0,E,A*3B
$GNGGA,192924.00,4948.726802,N,09707.482547,W,1,12,0.7,233.0,M,-30.0,M,,*44
$GPGSV,3,1,10,02,52,223,28,03,12,033,33,06,79,088,39,12,52,298,34*74
$GPGSV,3,2,10,17,37,087,38,19,54,080,40,24,19,244,32,23,00,000,*76
$GPGSV,3,3,10,25,15,313,,28,00,000,*70
$GLGSV,3,1,09,74,30,323,25,66,19,029,34,82,39,053,35,73,54,262,35*6A
$GLGSV,3,2,09,80,21,191,30,83,69,319,24,67,25,085,36,68,04,133,29*6B
$GLGSV,3,3,09,84,20,260,*56
$GAGSV,1,1,0,*74
$PQGSV,1,1,0,*73
$PQGSV,1,1,0,*73
$GNGSA,A,3,02,03,06,12,17,19,24,25,,,,,1.0,0.7,0.7,1*3B
$GNGSA,A,3,66,67,73,74,80,82,83,,,,,,1.0,0.7,0.7,2*3C
$GNVTG,334.0,T,334.0,M,3.0,N,5.6,K,A*3D
$GNRMC,192925.00,A,4948.727635,N,09707.483075,W,3.0,334.0,270619,2.0,E,A*34
$GNGGA,192925.00,4948.727635,N,09707.483075,W,1,12,0.7,233.0,M,-30.0,M,,*4B
$GPGSV,3,1,10,02,52,223,28,03,12,033,33,06,79,088,40,12,52,298,35*7B
$GPGSV,3,2,10,17,37,087,39,19,54,080,40,24,19,244,33,23,00,000,*76
$GPGSV,3,3,10,25,15,313,,28,00,000,*70
$GLGSV,2,1,08,66,19,029,34,82,39,053,34,73,54,262,35,80,21,191,31*6E
$GLGSV,2,2,08,83,69,319,23,67,25,085,36,68,04,133,31,84,20,260,*6E
$GAGSV,1,1,0,*74
$PQGSV,1,1,0,*73
$PQGSV,1,1,0,*73
$GNGSA,A,3,02,03,06,12,17,19,24,25,,,,,1.0,0.7,0.7,1*3B
$GNGSA,A,3,66,67,73,80,82,83,,,,,,,1.0,0.7,0.7,2*3F
$GNVTG,334.0,T,334.0,M,3.0,N,5.5,K,A*3E
$GNRMC,192926.00,A,4948.728453,N,09707.483642,W,3.0,334.0,270619,2.0,E,A*38
$GNGGA,192926.00,4948.728453,N,09707.483642,W,1,12,0.7,233.0,M,-30.0,M,,*47
$GPGSV,3,1,10,02,52,223,26,03,12,033,32,06,79,088,40,12,52,298,34*75
$GPGSV,3,2,10,17,37,087,38,19,54,080,40,24,19,244,32,25,15,313,24*73
$GPGSV,3,3,10,23,00,000,,28,00,000,*73
$GLGSV,3,1,09,66,19,029,33,82,39,053,35,73,54,262,35,80,21,191,30*69
$GLGSV,3,2,09,83,69,319,23,67,25,085,35,68,04,133,31,74,30,323,*65
$GLGSV,3,3,09,84,20,260,*56
$GAGSV,1,1,0,*74
$PQGSV,1,1,0,*73
$PQGSV,1,1,0,*73
$GNGSA,A,3,02,03,06,12,17,19,24,25,,,,,1.0,0.7,0.7,1*3B
$GNGSA,A,3,66,67,73,74,80,82,83,,,,,,1.0,0.7,0.7,2*3C
$GNVTG,336.3,T,336.3,M,3.0,N,5.5,K,A*3E
$GNRMC,192927.00,A,4948.729304,N,09707.484125,W,3.0,336.3,270619,2.0,E,A*3D
$GNGGA,192927.00,4948.729304,N,09707.484125,W,1,12,0.7,233.0,M,-30.0,M,,*43
$GPGSV,3,1,10,02,52,223,29,03,12,033,34,06,79,088,41,12,52,298,35*7C
$GPGSV,3,2,10,17,37,087,38,19,54,080,41,24,19,244,34,25,15,313,23*73
$GPGSV,3,3,10,23,00,000,,28,00,000,*73
$GLGSV,3,1,09,74,30,323,25,66,19,029,34,82,39,053,36,73,54,262,37*6B
$GLGSV,3,2,09,80,21,191,32,83,69,319,24,67,25,085,35,68,04,133,31*63
$GLGSV,3,3,09,84,20,260,*56
$GAGSV,1,1,0,*74
$PQGSV,1,1,0,*73
$PQGSV,1,1,0,*73
$GNGSA,A,3,02,03,06,12,17,19,24,25,,,,,1.0,0.7,0.7,1*3B
$GNGSA,A,3,66,67,73,74,80,82,83,,,,,,1.0,0.7,0.7,2*3C
$GNVTG,336.3,T,336.3,M,2.9,N,5.3,K,A*30
$GNRMC,192928.00,A,4948.730093,N,09707.484558,W,2.9,336.3,270619,2.0,E,A*31
$GNGGA,192928.00,4948.730093,N,09707.484558,W,1,12,0.7,233.0,M,-30.0,M,,*47
$GPGSV,3,1,09,02,52,223,30,03,12,033,35,06,79,088,41,12,52,298,36*7E
$GPGSV,3,2,09,17,37,087,39,19,54,080,41,24,19,244,33,23,00,000,*7F
$GPGSV,3,3,09,28,00,000,*4A
$GLGSV,2,1,08,74,30,323,26,66,19,029,35,82,39,053,37,73,54,262,36*69
$GLGSV,2,2,08,80,21,191,31,67,25,085,35,68,04,133,31,84,20,260,*63
$GAGSV,1,1,0,*74
$PQGSV,1,1,0,*73
$PQGSV,1,1,0,*73
$GNGSA,A,3,02,03,06,12,17,19,24,,,,,,1.0,0.7,0.7,1*3C
$GNGSA,A,3,66,67,73,74,80,82,,,,,,,1.0,0.7,0.7,2*37
$GNVTG,338.2,T,338.2,M,2.9,N,5.4,K,A*37
$GNRMC,192929.00,A,4948.730844,N,09707.484933,W,2.9,338.2,270619,2.0,E,A*3C
$GNGGA,192929.00,4948.730844,N,09707.484933,W,1,12,0.7,233.0,M,-30.0,M,,*45
$GPGSV,3,1,10,02,52,223,27,03,12,033,34,06,79,088,42,12,52,298,35*71
$GPGSV,3,2,10,17,37,087,38,19,54,080,41,24,19,244,32,25,15,313,27*71
$GPGSV,3,3,10,23,00,000,,28,00,000,*73
$GLGSV,2,1,08,66,19,029,35,82,39,053,38,73,54,262,37,80,21,191,31*61
$GLGSV,2,2,08,67,25,085,36,68,04,133,31,84,20,260,,83,69,319,*6F
$GAGSV,1,1,0,*74
$PQGSV,1,1,0,*73
$PQGSV,1,1,0,*73
$GNGSA,A,3,02,03,06,12,17,19,24,25,,,,,1.0,0.7,0.7,1*3B
$GNGSA,A,3,66,67,73,80,82,83,,,,,,,1.0,0.7,0.7,2*3F
$GNVTG,335.7,T,335.7,M,3.2,N,5.9,K,A*30
$GNRMC,192930.00,A,4948.731609,N,09707.485424,W,3.2,335.7,270619,2.0,E,A*3A
$GNGGA,192930.00,4948.731609,N,09707.485424,W,1,12,0.7,233.0,M,-30.0,M,,*41
$GPGSV,3,1,09,02,52,223,29,03,12,033,34,06,79,088,41,12,52,298,34*75
$GPGSV,3,2,09,17,37,087,38,19,54,080,40,24,19,244,33,23,00,000,*7F
$GPGSV,3,3,09,28,00,000,*4A
$GLGSV,3,1,09,74,30,323,24,66,19,029,34,82,39,053,37,73,54,262,36*6A
$GLGSV,3,2,09,80,21,191,31,84,20,260,23,83,69,319,23,67,25,085,34*64
$GLGSV,3,3,09,68,04,133,30*54
$GAGSV,1,1,0,*74
$PQGSV,1,1,0,*73
$PQGSV,1,1,0,*73
$GNGSA,A,3,02,03,06,12,17,19,24,,,,,,1.0,0.7,0.7,1*3C
$GNGSA,A,3,66,67,73,74,80,82,83,,,,,,1.0,0.7,0.7,2*3C
$GNVTG,333.9,T,333.9,M,3.2,N,6.0,K,A*3A
$GNRMC,192931.00,A,4948.732386,N,09707.485923,W,3.2,333.9,270619,2.0,E,A*38
$GNGGA,192931.00,4948.732386,N,09707.485923,W,1,12,0.7,233.0,M,-30.0,M,,*4B
$GPGSV,3,1,10,02,52,223,31,03,12,033,33,06,79,088,42,12,52,298,34*70
$GPGSV,3,2,10,17,37,087,38,19,54,080,40,24,19,244,32,25,15,313,26*71
$GPGSV,3,3,10,23,00,000,,28,00,000,*73
$GLGSV,2,1,07,66,19,029,36,82,39,053,37,73,54,262,35,80,21,191,31*60
$GLGSV,2,2,07,83,69,319,24,67,25,085,35,68,04,133,28*57
$GAGSV,1,1,0,*74
$PQGSV,1,1,0,*73
$PQGSV,1,1,0,*73
$GNGSA,A,3,02,03,06,12,17,19,24,25,,,,,1.0,0.7,0.7,1*3B
$GNGSA,A,3,66,67,73,80,82,83,,,,,,,1.0,0.7,0.7,2*3F
$GNVTG,333.8,T,333.8,M,3.2,N,5.9,K,A*30
$GNRMC,192932.00,A,4948.733171,N,09707.486391,W,3.2,333.8,270619,2.0,E,A*31
$GNGGA,192932.00,4948.733171,N,09707.486391,W,1,12,0.7,233.0,M,-30.0,M,,*43
$GPGSV,3,1,10,02,52,223,31,03,12,033,36,06,79,088,42,12,52,298,35*74
$GPGSV,3,2,10,17,37,087,37,19,54,080,41,24,19,244,34,25,15,313,28*77
$GPGSV,3,3,10,23,00,000,,28,00,000,*73
$GLGSV,2,1,08,66,19,029,35,82,39,053,38,73,54,262,37,80,21,191,32*62
$GLGSV,2,2,08,67,25,085,37,68,04,133,27,74,30,323,,84,20,260,*64
$GAGSV,1,1,0,*74
$PQGSV,1,1,0,*73
$PQGSV,1,1,0,*73
$GNGSA,A,3,02,03,06,12,17,19,24,25,,,,,1.0,0.7,0.7,1*3B
$GNGSA,A,3,66,67,73,74,80,82,84,,,,,,1.0,0.7,0.7,2*3B
$GNVTG,333.9,T,333.9,M,2.6,N,4.8,K,A*35
$GNRMC,192933.00,A,4948.733931,N,09707.486801,W,2.6,333.9,270619,2.0,E,A*3A
$GNGGA,192933.00,4948.733931,N,09707.486801,W,1,12,0.7,233.0,M,-30.0,M,,*4C
$GPGSV,3,1,10,02,52,223,29,03,12,033,36,06,79,088,43,12,52,298,35*7C
$GPGSV,3,2,10,17,37,087,41,19,54,080,41,24,19,244,34,25,15,313,26*78
$GPGSV,3,3,10,23,00,000,,28,00,000,*73
$GLGSV,3,1,09,66,19,029,36,82,39,053,38,73,54,262,35,80,21,191,32*63
$GLGSV,3,2,09,83,69,319,26,67,25,085,37,68,04,133,30,74,30,323,*63
$GLGSV,3,3,09,84,20,260,*56
$GAGSV,1,1,0,*74
$PQGSV,1,1,0,*73
$PQGSV,1,1,0,*73
$GNGSA,A,3,02,03,06,12,17,19,24,25,,,,,1.0,0.7,0.7,1*3B
$GNGSA,A,3,66,67,73,74,80,82,83,84,,,,,1.0,0.7,0.7,2*30
$GNVTG,334.7,T,334.7,M,2.9,N,5.4,K,A*37
$GNRMC,192934.00,A,4948.734678,N,09707.487267,W,2.9,334.7,270619,2.0,E,A*35
$GNGGA,192934.00,4948.734678,N,09707.487267,W,1,12,0.7,233.0,M,-30.0,M,,*45
$GPGSV,3,1,10,02,52,223,26,03,12,033,35,06,79,088,42,12,52,298,36*72
$GPGSV,3,2,10,17,37,087,39,19,54,080,41,24,19,244,35,25,15,313,28*78
$GPGSV,3,3,10,23,00,000,,28,00,000,*73
$GLGSV,2,1,08,66,19,029,35,82,39,053,39,73,54,262,37,80,21,191,30*61
$GLGSV,2,2,08,67,25,085,36,68,04,133,29,74,30,323,,84,20,260,*6B
$GAGSV,1,1,0,*74
$PQGSV,1,1,0,*73
$PQGSV,1,1,0,*73
$GNGSA,A,3,02,03,06,12,17,19,24,25,,,,,1.0,0.7,0.7,1*3B
$GNGSA,A,3,66,67,73,74,80,82,84,,,,,,1.0,0.7,0.7,2*3B
$GNVTG,334.7,T,334.7,M,2.7,N,5.1,K,A*3C
$GNRMC,192935.00,A,4948.735464,N,09707.487776,W,2.7,334.7,270619,2.0,E,A*31
$GNGGA,192935.00,4948.735464,N,09707.487776,W,1,12,0.7,233.0,M,-30.0,M,,*4F
$GPGSV,3,1,09,02,52,223,26,03,12,033,34,06,79,088,42,12,52,298,37*7A
$GPGSV,3,2,09,17,37,087,40,19,54,080,41,24,19,244,33,23,00,000,*71
$GPGSV,3,3,09,28,00,000,*4A
$GLGSV,3,1,09,66,19,029,36,82,39,053,39,73,54,262,38,80,21,191,31*6C
$GLGSV,3,2,09,83,69,319,26,67,25,085,37,68,04,133,31,74,30,323,*62
$GLGSV,3,3,09,84,20,260,*56
$GAGSV,1,1,0,*74
$PQGSV,1,1,0,*73
$PQGSV,1,1,0,*73
$GNGSA,A,3,02,03,06,12,17,19,24,,,,,,1.0,0.7,0.7,1*3C
$GNGSA,A,3,66,67,73,74,80,82,83,84,,,,,1.0,0.7,0.7,2*30
$GNVTG,334.1,T,334.1,M,2.9,N,5.4,K,A*37
$GNRMC,192936.00,A,4948.736279,N,09707.488359,W,2.9,334.1,270619,2.0,E,A*35
$GNGGA,192936.00,4948.736279,N,09707.488359,W,1,12,0.7,232.0,M,-30.0,M,,*42
$GPGSV,3,1,10,02,52,223,29,03,12,033,34,06,79,088,42,12,52,298,37*7D
$GPGSV,3,2,10,17,37,087,40,19,54,080,41,24,19,244,36,25,15,313,26*7B
$GPGSV,3,3,10,23,00,000,,28,00,000,*73
$GLGSV,3,1,09,66,19,029,36,82,39,053,39,73,54,262,37,80,21,191,32*60
$GLGSV,3,2,09,83,69,319,27,67,25,085,36,68,04,133,31,74,30,323,*62
$GLGSV,3,3,09,84,20,260,*56
$GAGSV,1,1,0,*74
$PQGSV,1,1,0,*73
$PQGSV,1,1,0,*73
$GNGSA,A,3,02,03,06,12,17,19,24,25,,,,,1.1,0.8,0.7,1*35
$GNGSA,A,3,66,67,73,74,80,82,83,84,,,,,1.1,0.8,0.7,2*3E
$GNVTG,336.0,T,336.0,M,3.0,N,5.5,K,A*3E
$GNRMC,192937.00,A,4948.737179,N,09707.488973,W,3.0,336.0,270619,2.0,E,A*3F
$GNGGA,192937.00,4948.737179,N,09707.488973,W,1,12,0.8,233.0,M,-30.0,M,,*4D
$GPGSV,3,1,10,02,52,223,29,03,12,033,34,06,79,088,42,12,52,298,36*7C
$GPGSV,3,2,10,17,37,087,40,19,54,080,42,24,19,244,35,25,15,313,26*7B
$GPGSV,3,3,10,23,00,000,,28,00,000,*73
$GLGSV,3,1,09,66,19,029,36,82,39,053,39,73,54,262,37,80,21,191,31*63
$GLGSV,3,2,09,83,69,319,26,67,25,085,36,68,04,133,29,74,30,323,*6A
$GLGSV,3,3,09,84,20,260,*56
$GAGSV,1,1,0,*74
$PQGSV,1,1,0,*73
$PQGSV,1,1,0,*73
$GNGSA,A,3,02,03,06,12,17,19,24,25,,,,,1.1,0.8,0.7,1*35
$GNGSA,A,3,66,67,73,80,82,83,,,,,,,1.1,0.8,0.7,2*31
$GNVTG,336.0,T,336.0,M,2.8,N,5.3,K,A*31
$GNRMC,192938.00,A,4948.738062,N,09707.489534,W,2.8,336.0,270619,2.0,E,A*33
$GNGGA,192938.00,4948.738062,N,09707.489534,W,1,12,0.8,233.0,M,-30.0,M,,*48
$GPGSV,3,1,10,02,52,223,28,03,12,033,35,06,79,088,42,12,52,298,37*7D
$GPGSV,3,2,10,17,37,087,41,19,54,080,41,24,19,244,35,25,15,313,27*78
$GPGSV,3,3,10,23,00,000,,28,00,000,*73
$GLGSV,2,1,08,66,19,029,34,82,39,053,40,73,54,262,38,80,21,191,31*60
$GLGSV,2,2,08,67,25,085,37,68,04,133,30,74,30,323,,84,20,260,*62
$GAGSV,1,1,0,*74
$PQGSV,1,1,0,*73
$PQGSV,1,1,0,*73
$GNGSA,A,3,02,03,06,12,17,19,24,25,,,,,1.1,0.8,0.7,1*35
$GNGSA,A,3,66,67,73,80,82,,,,,,,,1.1,0.8,0.7,2*3A
$GNVTG,331.3,T,331.3,M,3.1,N,5.7,K,A*3D
$GNRMC,192939.00,A,4948.738990,N,09707.490126,W,3.1,331.3,270619,2.0,E,A*35
$GNGGA,192939.00,4948.738990,N,09707.490126,W,1,12,0.8,232.0,M,-30.0,M,,*43
$GPGSV,3,1,10,02,52,223,29,03,12,033,34,06,79,088,42,12,52,298,35*7F
$GPGSV,3,2,10,17,37,087,41,19,54,080,42,24,19,244,35,25,15,313,26*7A
$GPGSV,3,3,10,23,00,000,,28,00,000,*73
$GLGSV,3,1,09,66,19,029,34,82,39,053,39,73,54,262,37,80,21,191,32*62
$GLGSV,3,2,09,83,69,319,27,67,25,085,36,68,04,133,30,74,30,323,*63
$GLGSV,3,3,09,84,20,260,*56
$GAGSV,1,1,0,*74
$PQGSV,1,1,0,*73
$PQGSV,1,1,0,*73
$GNGSA,A,3,02,03,06,12,17,19,24,25,,,,,1.1,0.8,0.7,1*35
$GNGSA,A,3,66,67,73,80,82,83,,,,,,,1.1,0.8,0.7,2*31
$GNVTG,333.6,T,333.6,M,3.0,N,5.5,K,A*3E
$GNRMC,192940.00,A,4948.740005,N,09707.490756,W,3.0,333.6,270619,2.0,E,A*36
$GNGGA,192940.00,4948.740005,N,09707.490756,W,1,12,0.8,233.0,M,-30.0,M,,*47
$GPGSV,3,1,10,02,52,223,28,03,12,033,33,06,79,088,42,12,52,298,35*79
$GPGSV,3,2,10,17,37,087,40,19,54,080,41,24,19,244,35,25,15,313,27*79
$GPGSV,3,3,10,23,00,000,,28,00,000,*73
$GLGSV,3,1,09,66,19,029,35,82,39,053,39,73,54,262,36,80,21,191,31*61
$GLGSV,3,2,09,83,69,319,25,67,25,085,36,68,04,133,30,74,30,323,*61
$GLGSV,3,3,09,84,20,260,*56
$GAGSV,1,1,0,*74
$PQGSV,1,1,0,*73
$PQGSV,1,1,0,*73
$GNGSA,A,3,02,03,06,12,17,19,24,25,,,,,1.1,0.8,0.7,1*35
$GNGSA,A,3,66,67,73,80,82,83,,,,,,,1.1,0.8,0.7,2*31
$GNVTG,333.2,T,333.2,M,3.3,N,6.1,K,A*3A
$GNRMC,192941.00,A,4948.741033,N,09707.491439,W,3.3,333.2,270619,2.0,E,A*3F
$GNGGA,192941.00,4948.741033,N,09707.491439,W,1,12,0.8,233.0,M,-30.0,M,,*49
$GPGSV,3,1,10,02,52,223,29,03,12,033,34,06,79,088,42,12,52,298,36*7C
$GPGSV,3,2,10,17,37,087,40,19,54,080,42,24,19,244,35,25,15,313,27*7A
$GPGSV,3,3,10,23,00,000,,28,00,000,*73
$GLGSV,2,1,08,66,19,029,35,82,39,053,39,73,54,262,37,80,21,191,32*63
$GLGSV,2,2,08,67,25,085,35,68,04,133,29,74,30,323,,84,20,260,*68
$GAGSV,1,1,0,*74
$PQGSV,1,1,0,*73
$PQGSV,1,1,0,*73
$GNGSA,A,3,02,03,06,12,17,19,24,25,,,,,1.1,0.8,0.7,1*35
$GNGSA,A,3,66,67,73,80,82,,,,,,,,1.1,0.8,0.7,2*3A
$GNVTG,331.6,T,331.6,M,3.2,N,5.9,K,A*30
$GNRMC,192942.00,A,4948.742034,N,09707.492078,W,3.2,331.6,270619,2.0,E,A*3D
$GNGGA,192942.00,4948.742034,N,09707.492078,W,1,12,0.8,232.0,M,-30.0,M,,*4D
$GPGSV,3,1,10,02,52,223,31,03,12,033,35,06,79,088,42,12,52,298,35*77
$GPGSV,3,2,10,17,37,087,38,19,54,080,41,24,19,244,35,25,15,313,26*77
$GPGSV,3,3,10,23,00,000,,28,00,000,*73
$GLGSV,3,1,09,66,19,029,36,82,39,053,39,73,54,262,37,80,21,191,31*63
$GLGSV,3,2,09,67,25,085,36,68,04,133,29,74,30,323,,84,20,260,*6B
$GLGSV,3,3,09,83,69,319,*53
$GAGSV,1,1,0,*74
$PQGSV,1,1,0,*73
$PQGSV,1,1,0,*73
$GNGSA,A,3,02,03,06,12,17,19,24,25,,,,,1.1,0.8,0.7,1*35
$GNGSA,A,3,66,67,73,80,82,83,,,,,,,1.1,0.8,0.7,2*31
$GNVTG,333.7,T,333.7,M,2.9,N,5.4,K,A*37
$GNRMC,192943.00,A,4948.742885,N,09707.492615,W,2.9,333.7,270619,2.0,E,A*3A
$GNGGA,192943.00,4948.742885,N,09707.492615,W,1,12,0.8,232.0,M,-30.0,M,,*43
$GPGSV,3,1,10,02,52,223,31,03,12,033,33,06,79,088,42,12,52,298,35*71
$GPGSV,3,2,10,17,37,087,38,19,54,080,42,24,19,244,33,25,15,313,26*72
$GPGSV,3,3,10,23,00,000,,28,00,000,*73
$GLGSV,3,1,09,66,19,029,36,82,39,053,39,73,54,262,37,80,21,191,31*63
$GLGSV,3,2,09,83,69,319,26,67,25,085,36,68,04,133,27,74,30,323,*64
$GLGSV,3,3,09,84,20,260,*56
$GAGSV,1,1,0,*74
$PQGSV,1,1,0,*73
$PQGSV,1,1,0,*73
$GNGSA,A,3,02,03,06,12,17,19,24,25,,,,,1.1,0.8,0.7,1*35
$GNGSA,A,3,66,67,73,80,82,83,,,,,,,1.1,0.8,0.7,2*31
$GNVTG,335.6,T,335.6,M,3.1,N,5.7,K,A*3D
$GNRMC,192944.00,A,4948.743632,N,09707.493082,W,3.1,335.6,270619,2.0,E,A*39
$GNGGA,192944.00,4948.743632,N,09707.493082,W,1,12,0.8,232.0,M,-30.0,M,,*4E
$GPGSV,3,1,10,02,52,223,30,03,12,033,34,06,79,088,42,12,52,298,35*77
$GPGSV,3,2,10,17,37,087,39,19,54,080,41,24,19,244,34,25,15,313,27*76
$GPGSV,3,3,10,23,00,000,,28,00,000,*73
$GLGSV,3,1,09,66,19,029,36,82,39,053,39,73,54,262,37,80,21,191,32*60
$GLGSV,3,2,09,83,69,319,27,67,25,085,36,68,04,133,30,74,30,323,*63
$GLGSV,3,3,09,84,20,260,*56
$GAGSV,1,1,0,*74
$PQGSV,1,1,0,*73
$PQGSV,1,1,0,*73
$GNGSA,A,3,02,03,06,12,17,19,24,25,,,,,1.1,0.8,0.7,1*35
$GNGSA,A,3,66,67,73,80,82,83,,,,,,,1.1,0.8,0.7,2*31
$GNVTG,334.4,T,334.4,M,2.9,N,5.4,K,A*37
$GNRMC,192945.00,A,4948.744494,N,09707.493648,W,2.9,334.4,270619,2.0,E,A*3B
$GNGGA,192945.00,4948.744494,N,09707.493648,W,1,12,0.8,231.0,M,-30.0,M,,*45
$GPGSV,3,1,10,02,52,223,29,03,12,033,33,06,79,088,42,12,52,298,34*79
$GPGSV,3,2,10,17,37,087,39,19,54,080,41,24,19,244,34,25,15,313,27*76
$GPGSV,3,3,10,23,00,000,,28,00,000,*73
$GLGSV,3,1,09,66,19,029,35,82,39,053,39,73,54,262,36,80,21,191,29*68
$GLGSV,3,2,09,83,69,319,26,67,25,085,36,68,04,133,29,74,30,323,*6A
$GLGSV,3,3,09,84,20,260,*56
$GAGSV,1,1,0,*74
$PQGSV,1,1,0,*73
$PQGSV,1,1,0,*73
$GNGSA,A,3,02,03,06,12,17,19,24,25,,,,,1.1,0.8,0.7,1*35
$GNGSA,A,3,66,67,73,80,82,83,,,,,,,1.1,0.8,0.7,2*31
$GNVTG,334.5,T,334.5,M,2.7,N,4.9,K,A*35
$GNRMC,192946.00,A,4948.745233,N,09707.494085,W,2.7,334.5,270619,2.0,E,A*3D
$GNGGA,192946.00,4948.745233,N,09707.494085,W,1,12,0.8,231.0,M,-30.0,M,,*4C
$GPGSV,3,1,09,02,52,223,29,03,12,033,34,06,79,088,42,12,52,298,34*76
$GPGSV,3,2,09,17,37,087,38,19,54,080,41,24,19,244,34,25,15,313,28*70
$GPGSV,3,3,09,28,00,000,*4A
$GLGSV,3,1,09,66,19,029,35,82,39,053,39,73,54,262,36,80,21,191,31*61
$GLGSV,3,2,09,83,69,319,25,67,25,085,36,68,04,133,28,74,30,323,*68
$GLGSV,3,3,09,84,20,260,*56
$GAGSV,1,1,0,*74
$PQGSV,1,1,0,*73
$PQGSV,1,1,0,*73
$GNGSA,A,3,02,03,06,12,17,19,24,25,,,,,1.1,0.8,0.7,1*35
$GNGSA,A,3,66,67,73,80,82,83,,,,,,,1.1,0.8,0.7,2*31
$GNVTG,334.1,T,334.1,M,3.1,N,5.7,K,A*3D
$GNRMC,192947.00,A,4948.745982,N,09707.494574,W,3.1,334.1,270619,2.0,E,A*35
$GNGGA,192947.00,4948.745982,N,09707.494574,W,1,12,0.8,232.0,M,-30.0,M,,*44
$GPGSV,3,1,10,02,52,223,32,03,12,033,33,06,79,088,42,12,52,298,34*73
$GPGSV,3,2,10,17,37,087,38,19,54,080,41,24,19,244,33,25,15,313,27*70
$GPGSV,3,3,10,23,00,000,,28,00,000,*73
$GLGSV,3,1,09,66,19,029,35,82,39,053,39,73,54,262,37,80,21,191,31*60
$GLGSV,3,2,09,84,20,260,24,83,69,319,26,67,25,085,36,68,04,133,29*64
$GLGSV,3,3,09,74,30,323,*5E
$GAGSV,1,1,0,*74
$PQGSV,1,1,0,*73
$PQGSV,1,1,0,*73
$GNGSA,A,3,02,03,06,12,17,19,24,25,,,,,1.0,0.8,0.7,1*34
$GNGSA,A,3,66,67,73,80,82,83,,,,,,,1.0,0.8,0.7,2*30
$GNVTG,334.0,T,334.0,M,2.8,N,5.3,K,A*31
$GNRMC,192948.00,A,4948.746765,N,09707.495090,W,2.8,334.0,270619,2.0,E,A*39
$GNGGA,192948.00,4948.746765,N,09707.495090,W,1,12,0.8,232.0,M,-30.0,M,,*41
$GPGSV,3,1,10,02,52,223,30,03,12,033,33,06,79,088,42,12,52,298,34*71
$GPGSV,3,2,10,17,37,087,38,19,54,080,41,24,19,244,34,25,15,313,28*78
$GPGSV,3,3,10,23,00,000,,28,00,000,*73
$GLGSV,2,1,08,66,19,029,36,82,39,053,39,73,54,262,37,80,21,191,31*63
$GLGSV,2,2,08,83,69,319,26,67,25,085,37,68,04,133,30,74,30,323,*63
$GAGSV,1,1,0,*74
$PQGSV,1,1,0,*73
$PQGSV,1,1,0,*73
$GNGSA,A,3,02,03,06,12,17,19,24,25,,,,,1.0,0.8,0.7,1*34
$GNGSA,A,3,66,67,73,80,82,83,,,,,,,1.0,0.8,0.7,2*30
$GNVTG,333.3,T,333.3,M,2.9,N,5.4,K,A*37
$GNRMC,192949.00,A,4948.747506,N,09707.495592,W,2.9,333.3,270619,2.0,E,A*3C
$GNGGA,192949.00,4948.747506,N,09707.495592,W,1,12,0.8,232.0,M,-30.0,M,,*41
$GPGSV,3,1,10,02,52,223,30,03,12,033,34,06,79,088,42,12,52,298,35*77
$GPGSV,3,2,10,17,37,087,39,19,54,080,42,24,19,244,34,25,15,313,27*75
$GPGSV,3,3,10,23,00,000,,28,00,000,*73
$GLGSV,3,1,09,66,19,029,35,82,39,053,39,73,54,262,37,80,21,191,30*61
$GLGSV,3,2,09,83,69,319,26,67,25,085,37,68,04,133,30,74,30,323,*63
$GLGSV,3,3,09,84,20,260,*56
$GAGSV,1,1,0,*74
$PQGSV,1,1,0,*73
$PQGSV,1,1,0,*73
$GNGSA,A,3,02,03,06,12,17,19,24,25,,,,,1.0,0.8,0.7,1*34
$GNGSA,A,3,66,67,73,80,82,83,84,,,,,,1.0,0.8,0.7,2*3C
$GNVTG,333.5,T,333.5,M,3.0,N,5.5,K,A*3E
$GNRMC,192950.00,A,4948.748260,N,09707.496095,W,3.0,333.5,270619,2.0,E,A*33
$GNGGA,192950.00,4948.748260,N,09707.496095,W,1,12,0.8,232.0,M,-30.0,M,,*40
$GPGSV,3,1,10,02,52,223,32,03,12,033,33,06,79,088,42,12,52,298,34*73
$GPGSV,3,2,10,17,37,087,38,19,54,080,41,24,19,244,33,25,15,313,28*7F
$GPGSV,3,3,10,23,00,000,,28,00,000,*73
$GLGSV,3,1,09,66,19,029,35,82,39,053,39,73,54,262,36,80,21,191,31*61
$GLGSV,3,2,09,84,20,260,23,83,69,319,25,67,25,085,36,68,04,133,29*60
$GLGSV,3,3,09,74,30,323,*5E
$GAGSV,1,1,0,*74
$PQGSV,1,1,0,*73
$PQGSV,1,1,0,*73
$GNGSA,A,3,02,03,06,12,17,19,24,25,,,,,1.0,0.8,0.7,1*34
$GNGSA,A,3,66,67,73,80,82,83,84,,,,,,1.0,0.8,0.7,2*3C
$GNVTG,333.6,T,333.6,M,3.1,N,5.8,K,A*32
$GNRMC,192951.00,A,4948.749002,N,09707.496657,W,3.1,333.6,270619,2.0,E,A*3F
$GNGGA,192951.00,4948.749002,N,09707.496657,W,1,12,0.8,232.0,M,-30.0,M,,*4E
$GPGSV,3,1,10,02,52,223,31,03,12,033,34,06,79,088,42,12,52,298,35*76
$GPGSV,3,2,10,17,37,087,39,19,54,080,41,24,19,244,35,25,15,313,29*79
$GPGSV,3,3,10,23,00,000,,28,00,000,*73
$GLGSV,2,1,07,66,19,029,36,82,39,053,39,73,54,262,37,80,21,191,32*6F
$GLGSV,2,2,07,67,25,085,37,68,04,133,29,74,30,323,*5F
$GAGSV,1,1,0,*74
$PQGSV,1,1,0,*73
$PQGSV,1,1,0,*73
$GNGSA,A,3,02,03,06,12,17,19,24,25,,,,,1.0,0.8,0.7,1*34
$GNGSA,A,3,66,67,73,80,82,,,,,,,,1.0,0.8,0.7,2*3B
$GNVTG,333.8,T,333.8,M,3.0,N,5.5,K,A*3E
$GNRMC,192952.00,A,4948.749735,N,09707.497235,W,3.0,333.8,270619,2.0,E,A*31
$GNGGA,192952.00,4948.749735,N,09707.497235,W,1,12,0.8,232.0,M,-30.0,M,,*4F
$GPGSV,3,1,10,02,52,223,30,03,12,033,33,06,79,088,42,12,52,298,35*70
$GPGSV,3,2,10,17,37,087,38,19,54,080,42,24,19,244,35,25,15,313,29*7B
$GPGSV,3,3,10,23,00,000,,28,00,000,*73
$GLGSV,3,1,09,66,19,029,35,82,39,053,40,73,54,262,38,80,21,191,30*60
$GLGSV,3,2,09,67,25,085,37,68,04,133,31,74,30,323,,84,20,260,*63
$GLGSV,3,3,09,83,69,319,*53
$GAGSV,1,1,0,*74
$PQGSV,1,1,0,*73
$PQGSV,1,1,0,*73
$GNGSA,A,3,02,03,06,12,17,19,24,25,,,,,1.0,0.8,0.7,1*34
$GNGSA,A,3,66,67,73,80,82,83,84,,,,,,1.0,0.8,0.7,2*3C
$GNVTG,335.5,T,335.5,M,3.1,N,5.8,K,A*32
$GNRMC,192953.00,A,4948.750451,N,09707.497772,W,3.1,335.5,270619,2.0,E,A*35
$GNGGA,192953.00,4948.750451,N,09707.497772,W,1,12,0.8,232.0,M,-30.0,M,,*41
$GPGSV,3,1,10,02,52,223,28,03,12,033,34,06,79,088,43,12,52,298,37*7D
$GPGSV,3,2,10,17,37,087,39,19,54,080,42,24,19,244,35,25,15,313,29*7A
$GPGSV,3,3,10,23,00,000,,28,00,000,*73
$GLGSV,3,1,09,66,19,029,36,82,39,053,40,73,54,262,39,80,21,191,31*63
$GLGSV,3,2,09,83,69,319,26,67,25,085,37,68,04,133,32,74,30,323,*61
$GLGSV,3,3,09,84,20,260,*56
$GAGSV,1,1,0,*74
$PQGSV,1,1,0,*73
$PQGSV,1,1,0,*73
$GNGSA,A,3,02,03,06,12,17,19,24,25,,,,,1.0,0.8,0.7,1*34
$GNGSA,A,3,66,67,73,80,82,83,84,,,,,,1.0,0.8,0.7,2*3C
$GNVTG,336.5,T,336.5,M,3.1,N,5.8,K,A*32
$GNRMC,192954.00,A,4948.751201,N,09707.498253,W,3.1,336.5,270619,2.0,E,A*3A
$GNGGA,192954.00,4948.751201,N,09707.498253,W,1,12,0.8,231.0,M,-30.0,M,,*4E
$GPGSV,3,1,10,02,52,223,28,03,12,033,34,06,79,088,42,12,52,298,36*7D
$GPGSV,3,2,10,17,37,087,38,19,54,080,42,24,19,244,36,25,15,313,29*78
$GPGSV,3,3,10,23,00,000,,28,00,000,*73
$GLGSV,3,1,09,66,19,029,35,82,39,053,40,73,54,262,38,80,21,191,31*61
$GLGSV,3,2,09,83,69,319,27,67,25,085,37,68,04,133,31,74,30,323,*63
$GLGSV,3,3,09,84,20,260,*56
$GAGSV,1,1,0,*74
$PQGSV,1,1,0,*73
$PQGSV,1,1,0,*73
$GNGSA,A,3,02,03,06,12,17,19,24,25,,,,,1.0,0.8,0.7,1*34
$GNGSA,A,3,66,67,73,80,82,83,84,,,,,,1.0,0.8,0.7,2*3C
$GNVTG,332.6,T,332.6,M,3.1,N,5.8,K,A*32
$GNRMC,192955.00,A,4948.751896,N,09707.498797,W,3.1,332.6,270619,2.0,E,A*35
$GNGGA,192955.00,4948.751896,N,09707.498797,W,1,12,0.8,231.0,M,-30.0,M,,*46
$GPGSV,3,1,10,02,52,223,26,03,12,033,34,06,79,088,43,12,52,298,36*72
$GPGSV,3,2,10,17,37,087,37,19,54,080,41,24,19,244,35,25,15,313,28*76
$GPGSV,3,3,10,23,00,000,,28,00,000,*73
$GLGSV,3,1,09,66,19,029,34,82,39,053,40,73,54,262,38,80,21,191,30*61
$GLGSV,3,2,09,83,69,319,26,67,25,085,37,68,04,133,32,74,30,323,*61
$GLGSV,3,3,09,84,20,260,*56
$GAGSV,1,1,0,*74
$PQGSV,1,1,0,*73
$PQGSV,1,1,0,*73
$GNGSA,A,3,02,03,06,12,17,19,24,25,,,,,1.0,0.8,0.7,1*34
$GNGSA,A,3,66,67,73,80,82,83,84,,,,,,1.0,0.8,0.7,2*3C
$GNVTG,333.0,T,333.0,M,2.9,N,5.4,K,A*37
$GNRMC,192956.00,A,4948.752607,N,09707.499305,W,2.9,333.0,270619,2.0,E,A*33
$GNGGA,192956.00,4948.752607,N,09707.499305,W,1,12,0.8,231.0,M,-30.0,M,,*4E
$GPGSV,3,1,10,02,52,223,30,03,12,033,33,06,79,088,43,12,52,298,36*72
$GPGSV,3,2,10,17,37,087,37,19,54,080,41,24,19,244,34,25,15,313,30*7E
$GPGSV,3,3,10,23,00,000,,28,00,000,*73
$GLGSV,3,1,09,66,19,029,34,82,39,053,40,73,54,262,37,80,21,191,31*6F
$GLGSV,3,2,09,83,69,319,27,67,25,085,38,68,04,133,29,74,30,323,*65
$GLGSV,3,3,09,84,20,260,*56
$GAGSV,1,1,0,*74
$PQGSV,1,1,0,*73
$PQGSV,1,1,0,*73
$GNGSA,A,3,02,03,06,12,17,19,24,25,,,,,1.1,0.8,0.7,1*35
$GNGSA,A,3,66,67,73,80,82,83,84,,,,,,1.1,0.8,0.7,2*3D
$GNVTG,332.5,T,332.5,M,3.0,N,5.6,K,A*3D
$GNRMC,192957.00,A,4948.753293,N,09707.499870,W,3.0,332.5,270619,2.0,E,A*3F
$GNGGA,192957.00,4948.753293,N,09707.499870,W,1,12,0.8,231.0,M,-30.0,M,,*4E
$GPGSV,3,1,10,02,52,223,32,03,12,033,34,06,79,088,43,12,52,298,35*74
$GPGSV,3,2,10,17,37,087,35,19,54,080,41,24,19,244,35,25,15,313,28*74
$GPGSV,3,3,10,23,00,000,,28,00,000,*73
$GLGSV,2,1,08,66,19,029,35,82,39,053,40,73,54,262,38,80,21,191,28*69
$GLGSV,2,2,08,67,25,085,38,68,04,133,29,74,30,323,,84,20,260,*65
$GAGSV,1,1,0,*74
$PQGSV,1,1,0,*73
$PQGSV,1,1,0,*73
$GNGSA,A,3,02,03,06,12,17,19,24,25,,,,,1.1,0.8,0.7,1*35
$GNGSA,A,3,66,67,73,80,82,,,,,,,,1.1,0.8,0.7,2*3A
$GNVTG,332.6,T,332.6,M,3.0,N,5.6,K,A*3D
$GNRMC,192958.00,A,4948.753983,N,09707.500428,W,3.0,332.6,270619,2.0,E,A*39
$GNGGA,192958.00,4948.753983,N,09707.500428,W,1,12,0.8,231.0,M,-30.0,M,,*4B
$GPGSV,3,1,10,02,52,223,30,03,12,033,34,06,79,088,43,12,52,298,36*75
$GPGSV,3,2,10,17,37,087,33,19,54,080,41,24,19,244,34,25,15,313,29*72
$GPGSV,3,3,10,23,00,000,,28,00,000,*73
$GLGSV,3,1,09,74,30,323,27,66,19,029,36,82,39,053,39,73,54,262,38*6B
$GLGSV,3,2,09,80,21,191,30,83,69,319,26,67,25,085,38,68,04,133,30*6F
$GLGSV,3,3,09,84,20,260,*56
$GAGSV,1,1,0,*74
$PQGSV,1,1,0,*73
$PQGSV,1,1,0,*73
$GNGSA,A,3,02,03,06,12,17,19,24,25,,,,,1.0,0.7,0.7,1*3B
$GNGSA,A,3,66,67,73,80,82,83,,,,,,,1.0,0.7,0.7,2*3F
$GNVTG,333.9,T,333.9,M,3.1,N,5.7,K,A*3D
$GNRMC,192959.00,A,4948.754642,N,09707.501048,W,3.1,333.9,270619,2.0,E,A*31
$GNGGA,192959.00,4948.754642,N,09707.501048,W,1,12,0.7,231.0,M,-30.0,M,,*43
$GPGSV,3,1,10,02,52,223,27,03,12,033,34,06,79,088,43,12,52,298,37*72
$GPGSV,3,2,10,17,37,087,34,19,54,080,41,24,19,244,35,25,15,313,28*75
$GPGSV,3,3,10,23,00,000,,28,00,000,*73
$GLGSV,2,1,08,66,19,029,36,82,39,053,40,73,54,262,38,80,21,191,30*63
$GLGSV,2,2,08,83,69,319,28,67,25,085,38,68,04,133,30,84,20,260,*6A
$GAGSV,1,1,0,*74
$PQGSV,1,1,0,*73
$PQGSV,1,1,0,*73
$GNGSA,A,3,02,03,06,12,17,19,24,25,,,,,1.0,0.7,0.7,1*3B
$GNGSA,A,3,66,67,73,80,82,83,,,,,,,1.0,0.7,0.7,2*3F
$GNVTG,332.3,T,332.3,M,3.3,N,6.2,K,A*39
$GNRMC,193000.00,A,4948.755330,N,09707.501634,W,3.3,332.3,270619,2.0,E,A*30
$GNGGA,193000.00,4948.755330,N,09707.501634,W,1,12,0.7,231.0,M,-30.0,M,,*4B
$GPGSV,3,1,09,03,12,033,35,06,79,088,43,12,52,298,37,17,37,087,36*70
$GPGSV,3,2,09,19,54,080,41,24,19,244,36,25,15,313,27,23,00,000,*7A
$GPGSV,3,3,09,28,00,000,*4A
$GLGSV,3,1,09,66,19,029,36,82,39,053,40,73,54,262,39,80,21,191,30*62
$GLGSV,3,2,09,83,69,319,26,67,25,085,38,68,04,133,33,74,30,323,*6F
$GLGSV,3,3,09,84,20,260,*56
$GAGSV,1,1,0,*74
$PQGSV,1,1,0,*73
$PQGSV,1,1,0,*73
$GNGSA,A,3,03,06,12,17,19,24,25,,,,,,1.0,0.7,0.7,1*39
$GNGSA,A,3,66,67,73,74,80,82,83,,,,,,1.0,0.7,0.7,2*3C
$GNVTG,336.0,T,336.0,M,3.2,N,5.9,K,A*30
$GNRMC,193001.00,A,4948.756066,N,09707.502182,W,3.2,336.0,270619,2.0,E,A*3D
$GNGGA,193001.00,4948.756066,N,09707.502182,W,1,12,0.7,232.0,M,-30.0,M,,*43
$GPGSV,3,1,10,02,52,223,27,03,12,033,34,06,79,088,43,12,52,298,36*73
$GPGSV,3,2,10,17,37,087,36,19,54,080,41,24,19,244,35,25,15,313,30*7E
$GPGSV,3,3,10,23,00,000,,28,00,000,*73
$GLGSV,3,1,09,66,19,029,34,82,39,053,40,73,54,262,39,80,21,191,30*60
$GLGSV,3,2,09,83,69,319,27,67,25,085,37,68,04,133,31,74,30,323,*63
$GLGSV,3,3,09,84,20,260,*56
$GAGSV,1,1,0,*74
$PQGSV,1,1,0,*73
$PQGSV,1,1,0,*73
$GNGSA,A,3,02,03,06,12,17,19,24,25,,,,,1.0,0.7,0.7,1*3B
$GNGSA,A,3,66,67,73,74,80,82,83,,,,,,1.0,0.7,0.7,2*3C
$GNVTG,336.3,T,336.3,M,2.8,N,5.2,K,A*30
$GNRMC,193002.00,A,4948.756761,N,09707.502590,W,2.8,336.3,270619,2.0,E,A*31
$GNGGA,193002.00,4948.756761,N,09707.502590,W,1,12,0.7,232.0,M,-30.0,M,,*47
$GPGSV,3,1,10,02,52,223,28,03,12,033,34,06,79,088,43,12,52,298,36*7C
$GPGSV,3,2,10,17,37,087,36,19,54,080,42,24,19,244,35,25,15,313,30*7D
$GPGSV,3,3,10,23,00,000,,28,00,000,*73
$GLGSV,3,1,09,66,19,029,35,82,39,053,40,73,54,262,38,80,21,191,30*60
$GLGSV,3,2,09,84,20,260,27,83,69,319,27,67,25,085,38,68,04,133,31*61
$GLGSV,3,3,09,74,30,323,*5E
$GAGSV,1,1,0,*74
$PQGSV,1,1,0,*73
$PQGSV,1,1,0,*73
$GNGSA,A,3,02,03,06,12,17,19,24,25,,,,,1.0,0.7,0.7,1*3B
$GNGSA,A,3,66,67,73,74,80,82,83,,,,,,1.0,0.7,0.7,2*3C
$GNVTG,334.9,T,334.9,M,2.9,N,5.4,K,A*37
$GNRMC,193003.00,A,4948.757441,N,09707.502945,W,2.9,334.9,270619,2.0,E,A*3D
$GNGGA,193003.00,4948.757441,N,09707.502945,W,1,12,0.7,232.0,M,-30.0,M,,*42
$GPGSV,3,1,10,02,52,223,26,03,12,033,34,06,79,088,44,12,52,298,38*7B
$GPGSV,3,2,10,17,37,087,36,19,54,080,41,24,19,244,35,25,15,313,28*77
$GPGSV,3,3,10,23,00,000,,28,00,000,*73
$GLGSV,2,1,07,74,30,323,26,66,19,029,33,82,39,053,40,73,54,262,39*6F
$GLGSV,2,2,07,80,21,191,29,67,25,085,38,68,04,133,30*53
$GAGSV,1,1,0,*74
$PQGSV,1,1,0,*73
$PQGSV,1,1,0,*73
$GNGSA,A,3,02,03,06,12,17,19,24,25,,,,,1.0,0.7,0.7,1*3B
$GNGSA,A,3,66,67,73,74,80,82,,,,,,,1.0,0.7,0.7,2*37
$GNVTG,329.3,T,329.3,M,3.1,N,5.7,K,A*3D
$GNRMC,193004.00,A,4948.758126,N,09707.503382,W,3.1,329.3,270619,2.0,E,A*3E
$GNGGA,193004.00,4948.758126,N,09707.503382,W,1,12,0.7,231.0,M,-30.0,M,,*4D
$GPGSV,3,1,09,02,52,223,27,03,12,033,34,06,79,088,43,12,52,298,37*7A
$GPGSV,3,2,09,17,37,087,35,19,54,080,41,24,19,244,34,25,15,313,28*7D
$GPGSV,3,3,09,28,00,000,*4A
$GLGSV,3,1,09,74,30,323,26,66,19,029,34,82,39,053,38,73,54,262,39*68
$GLGSV,3,2,09,80,21,191,29,83,69,319,26,67,25,085,38,68,04,133,30*67
$GLGSV,3,3,09,84,20,260,*56
$GAGSV,1,1,0,*74
$PQGSV,1,1,0,*73
$PQGSV,1,1,0,*73
$GNGSA,A,3,02,03,06,12,17,19,24,25,,,,,1.0,0.7,0.7,1*3B
$GNGSA,A,3,66,67,73,74,80,82,83,84,,,,,1.0,0.7,0.7,2*30
$GNVTG,329.4,T,329.4,M,3.1,N,5.8,K,A*32
$GNRMC,193005.00,A,4948.758825,N,09707.503935,W,3.1,329.4,270619,2.0,E,A*34
$GNGGA,193005.00,4948.758825,N,09707.503935,W,1,12,0.7,231.0,M,-30.0,M,,*40
$GPGSV,3,1,10,02,52,223,27,03,12,033,34,06,79,088,43,12,52,298,37*72
$GPGSV,3,2,10,17,37,087,33,19,54,080,41,24,19,244,35,25,15,313,28*72
$GPGSV,3,3,10,23,00,000,,28,00,000,*73
$GLGSV,3,1,09,74,30,323,25,66,19,029,34,82,39,053,39,73,54,262,39*6A
$GLGSV,3,2,09,80,21,191,30,83,69,319,25,67,25,085,38,68,04,133,30*6C
$GLGSV,3,3,09,84,20,260,*56
$GAGSV,1,1,0,*74
$PQGSV,1,1,0,*73
$PQGSV,1,1,0,*73
$GNGSA,A,3,02,03,06,12,17,19,24,25,,,,,1.0,0.7,0.7,1*3B
$GNGSA,A,3,66,67,73,74,80,82,83,84,,,,,1.0,0.7,0.7,2*30
$GNVTG,331.4,T,331.4,M,3.2,N,5.9,K,A*30
$GNRMC,193006.00,A,4948.759495,N,09707.504527,W,3.2,331.4,270619,2.0,E,A*33
$GNGGA,193006.00,4948.759495,N,09707.504527,W,1,12,0.7,232.0,M,-30.0,M,,*4E
$GPGSV,3,1,10,02,52,223,28,03,12,033,35,06,79,088,44,12,52,298,37*7B
$GPGSV,3,2,10,17,37,087,33,19,54,080,41,24,19,244,34,25,15,313,29*72
$GPGSV,3,3,10,23,00,000,,28,00,000,*73
$GLGSV,3,1,09,74,30,323,28,66,19,029,35,82,39,053,40,73,54,262,39*68
$GLGSV,3,2,09,80,21,191,29,83,69,319,27,67,25,085,39,68,04,133,29*6F
$GLGSV,3,3,09,84,20,260,*56
$GAGSV,1,1,0,*74
$PQGSV,1,1,0,*73
$PQGSV,1,1,0,*73
$GNGSA,A,3,02,03,06,12,17,19,24,25,,,,,1.0,0.7,0.7,1*3B
$GNGSA,A,3,66,67,73,74,80,82,83,84,,,,,1.0,0.7,0.7,2*30
$GNVTG,333.1,T,333.1,M,3.5,N,6.4,K,A*39
$GNRMC,193007.00,A,4948.760279,N,09707.505147,W,3.5,333.1,270619,2.0,E,A*3F
$GNGGA,193007.00,4948.760279,N,09707.505147,W,1,12,0.7,232.0,M,-30.0,M,,*42
$GPGSV,3,1,10,02,52,223,23,03,12,033,35,06,79,088,44,12,52,298,38*7F
$GPGSV,3,2,10,17,37,087,34,19,54,080,41,24,19,244,34,25,15,313,28*74
$GPGSV,3,3,10,23,00,000,,28,00,000,*73
$GLGSV,3,1,09,74,30,323,27,66,19,029,34,82,39,053,39,73,54,262,39*68
$GLGSV,3,2,09,80,21,191,27,84,20,260,24,83,69,319,26,67,25,085,38*6D
$GLGSV,3,3,09,68,04,133,31*55
$GAGSV,1,1,0,*74
$PQGSV,1,1,0,*73
$PQGSV,1,1,0,*73
$GNGSA,A,3,02,03,06,12,17,19,24,25,,,,,1.0,0.7,0.7,1*3B
$GNGSA,A,3,66,67,73,74,80,82,83,84,,,,,1.0,0.7,0.7,2*30
$GNVTG,332.3,T,332.3,M,3.2,N,5.9,K,A*30
$GNRMC,193008.00,A,4948.761000,N,09707.505742,W,3.2,332.3,270619,2.0,E,A*3A
$GNGGA,193008.00,4948.761000,N,09707.505742,W,1,12,0.7,232.0,M,-30.0,M,,*43
$GPGSV,2,1,08,03,12,033,35,06,79,088,43,12,52,298,38,17,37,087,33*7A
$GPGSV,2,2,08,19,54,080,42,24,19,244,34,23,00,000,,28,00,000,*76
$GLGSV,2,1,08,74,30,323,26,66,19,029,35,82,39,053,40,73,54,262,39*66
$GLGSV,2,2,08,80,21,191,28,83,69,319,27,67,25,085,38,68,04,133,30*67
$GAGSV,1,1,0,*74
$PQGSV,1,1,0,*73
$PQGSV,1,1,0,*73
$GNGSA,A,3,03,06,12,17,19,24,,,,,,,1.0,0.7,0.7,1*3E
$GNGSA,A,3,66,67,73,74,80,82,83,,,,,,1.0,0.7,0.7,2*3C
$GNVTG,331.9,T,331.9,M,2.9,N,5.4,K,A*37
$GNRMC,193009.00,A,4948.761723,N,09707.506254,W,2.9,331.9,270619,2.0,E,A*3F
$GNGGA,193009.00,4948.761723,N,09707.506254,W,1,12,0.7,231.0,M,-30.0,M,,*46
$GPGSV,3,1,10,03,12,033,36,06,79,088,43,12,52,298,37,17,37,087,34*79
$GPGSV,3,2,10,19,54,080,41,24,19,244,34,25,15,313,28,02,52,223,*78
$GPGSV,3,3,10,23,00,000,,28,00,000,*73
$GLGSV,2,1,08,74,30,323,27,66,19,029,35,82,39,053,39,73,54,262,39*69
$GLGSV,2,2,08,80,21,191,29,67,25,085,37,68,04,133,31,84,20,260,*68
$GAGSV,1,1,0,*74
$PQGSV,1,1,0,*73
$PQGSV,1,1,0,*73
$GNGSA,A,3,02,03,06,12,17,19,24,25,,,,,1.0,0.7,0.7,1*3B
$GNGSA,A,3,66,67,73,74,80,82,84,,,,,,1.0,0.7,0.7,2*3B
$GNVTG,334.0,T,334.0,M,3.4,N,6.3,K,A*3F
$GNRMC,193010.00,A,4948.762434,N,09707.506696,W,3.4,334.0,270619,2.0,E,A*3B
$GNGGA,193010.00,4948.762434,N,09707.506696,W,1,12,0.7,231.0,M,-30.0,M,,*42
$GPGSV,3,1,10,02,52,223,27,03,12,033,34,06,79,088,43,12,52,298,37*72
$GPGSV,3,2,10,17,37,087,33,19,54,080,42,24,19,244,34,25,15,313,26*7E
$GPGSV,3,3,10,23,00,000,,28,00,000,*73
$GLGSV,3,1,09,74,30,323,26,66,19,029,35,82,39,053,40,73,54,262,38*67
$GLGSV,3,2,09,80,21,191,29,67,25,085,38,68,04,133,29,84,20,260,*6E
$GLGSV,3,3,09,83,69,319,*53
$GAGSV,1,1,0,*74
$PQGSV,1,1,0,*73
$PQGSV,1,1,0,*73
$GNGSA,A,3,02,03,06,12,17,19,24,25,,,,,1.0,0.7,0.7,1*3B
$GNGSA,A,3,66,67,73,74,80,82,83,84,,,,,1.0,0.7,0.7,2*30
$GNVTG,332.5,T,332.5,M,3.3,N,6.2,K,A*39
$GNRMC,193011.00,A,4948.763208,N,09707.507247,W,3.3,332.5,270619,2.0,E,A*3F
$GNGGA,193011.00,4948.763208,N,09707.507247,W,1,12,0.7,232.0,M,-30.0,M,,*41
$GPGSV,3,1,10,02,52,223,26,03,12,033,34,06,79,088,43,12,52,298,37*73
$GPGSV,3,2,10,17,37,087,35,19,54,080,41,24,19,244,32,25,15,313,28*73
$GPGSV,3,3,10,23,00,000,,28,00,000,*73
$GLGSV,3,1,09,74,30,323,26,66,19,029,35,82,39,053,39,73,54,262,38*69
$GLGSV,3,2,09,80,21,191,29,83,69,319,27,67,25,085,38,68,04,133,29*6E
$GLGSV,3,3,09,84,20,260,*56
$GAGSV,1,1,0,*74
$PQGSV,1,1,0,*73
$PQGSV,1,1,0,*73
$GNGSA,A,3,02,03,06,12,17,19,24,25,,,,,1.0,0.7,0.7,1*3B
$GNGSA,A,3,66,67,73,74,80,82,83,84,,,,,1.0,0.7,0.7,2*30
$GNVTG,332.9,T,332.9,M,3.1,N,5.8,K,A*32
$GNRMC,193012.00,A,4948.764057,N,09707.507802,W,3.1,332.9,270619,2.0,E,A*36
$GNGGA,193012.00,4948.764057,N,09707.507802,W,1,12,0.7,232.0,M,-30.0,M,,*46
$GPGSV,3,1,10,02,52,223,29,03,12,033,34,06,79,088,43,12,52,298,37*7C
$GPGSV,3,2,10,17,37,087,35,19,54,080,41,24,19,244,33,25,15,313,30*7B
$GPGSV,3,3,10,23,00,000,,28,00,000,*73
$GLGSV,3,1,09,74,30,323,29,66,19,029,34,82,39,053,40,73,54,262,37*66
$GLGSV,3,2,09,80,21,191,29,83,69,319,27,67,25,085,38,68,04,133,29*6E
$GLGSV,3,3,09,84,20,260,*56
$GAGSV,1,1,0,*74
$PQGSV,1,1,0,*73
$PQGSV,1,1,0,*73
$GNGSA,A,3,02,03,06,12,17,19,24,25,,,,,1.0,0.7,0.7,1*3B
$GNGSA,A,3,66,67,73,74,80,82,83,84,,,,,1.0,0.7,0.7,2*30
$GNVTG,330.8,T,330.8,M,3.2,N,5.9,K,A*30
$GNRMC,193013.00,A,4948.764909,N,09707.508465,W,3.2,330.8,270619,2.0,E,A*37
$GNGGA,193013.00,4948.764909,N,09707.508465,W,1,12,0.7,232.0,M,-30.0,M,,*47
$GPGSV,3,1,09,03,12,033,33,06,79,088,44,12,52,298,38,17,37,087,37*7F
$GPGSV,3,2,09,19,54,080,41,24,19,244,34,25,15,313,30,23,00,000,*7E
$GPGSV,3,3,09,28,00,000,*4A
$GLGSV,3,1,09,74,30,323,26,66,19,029,36,82,39,053,40,73,54,262,39*65
$GLGSV,3,2,09,80,21,191,29,83,69,319,28,67,25,085,39,68,04,133,31*69
$GLGSV,3,3,09,84,20,260,*56
$GAGSV,1,1,0,*74
$PQGSV,1,1,0,*73
$PQGSV,1,1,0,*73
$GNGSA,A,3,03,06,12,17,19,24,25,,,,,,1.0,0.7,0.7,1*39
$GNGSA,A,3,66,67,73,74,80,82,83,84,,,,,1.0,0.7,0.7,2*30
$GNVTG,333.2,T,333.2,M,3.2,N,6.0,K,A*3A
$GNRMC,193014.00,A,4948.765754,N,09707.509092,W,3.2,333.2,270619,2.0,E,A*33
$GNGGA,193014.00,4948.765754,N,09707.509092,W,1,12,0.7,232.0,M,-30.0,M,,*4A
$GPGSV,3,1,10,03,12,033,33,06,79,088,43,12,52,298,38,17,37,087,36*71
$GPGSV,3,2,10,19,54,080,41,23,00,000,27,24,19,244,34,25,15,313,29*7B
$GPGSV,3,3,10,02,52,223,,28,00,000,*74
$GLGSV,2,1,07,66,19,029,34,82,39,053,39,73,54,262,39,80,21,191,28*68
$GLGSV,2,2,07,67,25,085,38,68,04,133,30,84,20,260,*50
$GAGSV,1,1,0,*74
$PQGSV,1,1,0,*73
$PQGSV,1,1,0,*73
$GNGSA,A,3,02,03,06,12,17,19,24,25,,,,,1.0,0.7,0.7,1*3B
$GNGSA,A,3,66,67,73,80,82,,,,,,,,1.0,0.7,0.7,2*34
$GNVTG,332.2,T,332.2,M,2.8,N,5.3,K,A*31
$GNRMC,193015.00,A,4948.766444,N,09707.509721,W,2.8,332.2,270619,2.0,E,A*36
$GNGGA,193015.00,4948.766444,N,09707.509721,W,1,12,0.7,231.0,M,-30.0,M,,*46
$GPGSV,3,1,09,03,12,033,35,06,79,088,44,12,52,298,38,17,37,087,36*78
$GPGSV,3,2,09,19,54,080,41,24,19,244,34,25,15,313,30,02,52,223,*79
$GPGSV,3,3,09,28,00,000,*4A
$GLGSV,2,1,08,66,19,029,32,82,39,053,41,73,54,262,39,84,20,260,27*69
$GLGSV,2,2,08,83,69,319,28,67,25,085,39,68,04,133,32,74,30,323,*61
$GAGSV,1,1,0,*74
$PQGSV,1,1,0,*73
$PQGSV,1,1,0,*73
$GNGSA,A,3,02,03,06,12,17,19,24,25,,,,,1.0,0.7,0.7,1*3B
$GNGSA,A,3,66,67,73,74,82,83,,,,,,,1.0,0.7,0.7,2*34
$GNVTG,334.6,T,334.6,M,3.4,N,6.3,K,A*3F
$GNRMC,193016.00,A,4948.767095,N,09707.510384,W,3.4,334.6,270619,2.0,E,A*30
$GNGGA,193016.00,4948.767095,N,09707.510384,W,1,12,0.7,230.0,M,-30.0,M,,*4E
$GPGSV,3,1,10,03,12,033,33,06,79,088,44,12,52,298,38,17,37,087,36*76
$GPGSV,3,2,10,19,54,080,41,24,19,244,34,25,15,313,29,02,52,223,*79
$GPGSV,3,3,10,23,00,000,,28,00,000,*73
$GLGSV,3,1,09,66,19,029,32,82,39,053,41,73,54,262,38,80,21,191,26*61
$GLGSV,3,2,09,84,20,260,26,83,69,319,27,67,25,085,38,68,04,133,32*63
$GLGSV,3,3,09,74,30,323,*5E
$GAGSV,1,1,0,*74
$PQGSV,1,1,0,*73
$PQGSV,1,1,0,*73
$GNGSA,A,3,02,03,06,12,17,19,24,25,,,,,1.0,0.7,0.7,1*3B
$GNGSA,A,3,66,67,73,74,80,82,83,84,,,,,1.0,0.7,0.7,2*30
$GNVTG,333.5,T,333.5,M,3.2,N,5.9,K,A*30
$GNRMC,193017.00,A,4948.767896,N,09707.511008,W,3.2,333.5,270619,2.0,E,A*3E
$GNGGA,193017.00,4948.767896,N,09707.511008,W,1,12,0.7,230.0,M,-30.0,M,,*42
$GPGSV,3,1,10,03,12,033,33,06,79,088,43,12,52,298,38,17,37,087,37*70
$GPGSV,3,2,10,19,54,080,41,24,19,244,35,25,15,313,29,02,52,223,*78
$GPGSV,3,3,10,23,00,000,,28,00,000,*73
$GLGSV,3,1,09,66,19,029,33,82,39,053,40,73,54,262,38,80,21,191,28*6F
$GLGSV,3,2,09,84,20,260,27,83,69,319,27,67,25,085,38,68,04,133,31*61
$GLGSV,3,3,09,74,30,323,*5E
$GAGSV,1,1,0,*74
$PQGSV,1,1,0,*73
$PQGSV,1,1,0,*73
$GNGSA,A,3,02,03,06,12,17,19,24,25,,,,,1.0,0.7,0.7,1*3B
$GNGSA,A,3,66,67,73,74,80,82,83,84,,,,,1.0,0.7,0.7,2*30
$GNVTG,331.6,T,331.6,M,3.3,N,6.2,K,A*39
$GNRMC,193018.00,A,4948.768620,N,09707.511739,W,3.3,331.6,270619,2.0,E,A*38
$GNGGA,193018.00,4948.768620,N,09707.511739,W,1,12,0.7,230.0,M,-30.0,M,,*44
$GPGSV,3,1,10,03,12,033,34,06,79,088,43,12,52,298,38,17,37,087,35*75
$GPGSV,3,2,10,19,54,080,41,24,19,244,33,25,15,313,27,02,52,223,*70
$GPGSV,3,3,10,23,00,000,,28,00,000,*73
$GLGSV,2,1,07,66,19,029,33,82,39,053,39,73,54,262,38,84,20,260,25*6B
$GLGSV,2,2,07,67,25,085,38,68,04,133,30,74,30,323,*58
$GAGSV,1,1,0,*74
$PQGSV,1,1,0,*73
$PQGSV,1,1,0,*73
$GNGSA,A,3,02,03,06,12,17,19,24,25,,,,,1.0,0.7,0.7,1*3B
$GNGSA,A,3,66,67,73,74,82,84,,,,,,,1.0,0.7,0.7,2*33
$GNVTG,336.1,T,336.1,M,3.4,N,6.3,K,A*3F
$GNRMC,193019.00,A,4948.769499,N,09707.512426,W,3.4,336.1,270619,2.0,E,A*31
$GNGGA,193019.00,4948.769499,N,09707.512426,W,1,12,0.7,229.0,M,-30.0,M,,*42
$GPGSV,3,1,10,03,12,033,34,06,79,088,43,12,52,298,38,17,37,087,34*74
$GPGSV,3,2,10,19,54,080,41,24,19,244,35,25,15,313,28,02,52,223,*79
$GPGSV,3,3,10,23,00,000,,28,00,000,*73
$GLGSV,3,1,09,74,30,323,25,66,19,029,34,82,39,053,39,73,54,262,39*6A
$GLGSV,3,2,09,80,21,191,27,84,20,260,26,83,69,319,26,67,25,085,38*6F
$GLGSV,3,3,09,68,04,133,31*55
$GAGSV,1,1,0,*74
$PQGSV,1,1,0,*73
$PQGSV,1,1,0,*73
$GNGSA,A,3,03,06,12,17,19,24,25,,,,,,1.0,0.7,0.7,1*39
$GNGSA,A,3,66,67,73,74,80,82,83,84,,,,,1.0,0.7,0.7,2*30
$GNVTG,335.5,T,335.5,M,3.0,N,5.6,K,A*3D
$GNRMC,193020.00,A,4948.770304,N,09707.513057,W,3.0,335.5,270619,2.0,E,A*30
$GNGGA,193020.00,4948.770304,N,09707.513057,W,1,12,0.7,229.0,M,-30.0,M,,*40
$GPGSV,3,1,09,03,12,033,34,06,79,088,43,12,52,298,38,17,37,087,34*7C
$GPGSV,3,2,09,19,54,080,41,24,19,244,34,25,15,313,29,02,52,223,*71
$GPGSV,3,3,09,28,00,000,*4A
$GLGSV,3,1,09,74,30,323,27,66,19,029,34,82,39,053,39,73,54,262,39*68
$GLGSV,3,2,09,80,21,191,27,84,20,260,24,83,69,319,25,67,25,085,38*6E
$GLGSV,3,3,09,68,04,133,29*5C
$GAGSV,1,1,0,*74
$PQGSV,1,1,0,*73
$PQGSV,1,1,0,*73
$GNGSA,A,3,03,06,12,17,19,24,25,,,,,,1.0,0.7,0.7,1*39
$GNGSA,A,3,66,67,73,74,80,82,83,84,,,,,1.0,0.7,0.7,2*30
$GNVTG,334.0,T,334.0,M,3.1,N,5.7,K,A*3D
$GNRMC,193021.00,A,4948.771069,N,09707.513616,W,3.1,334.0,270619,2.0,E,A*3E
$GNGGA,193021.00,4948.771069,N,09707.513616,W,1,12,0.7,229.0,M,-30.0,M,,*4B
$GPGSV,3,1,10,02,52,223,26,03,12,033,34,06,79,088,42,12,52,298,37*72
$GPGSV,3,2,10,17,37,087,34,19,54,080,40,24,19,244,34,25,15,313,29*74
$GPGSV,3,3,10,23,00,000,,28,00,000,*73
$GLGSV,3,1,09,74,30,323,26,66,19,029,34,82,39,053,39,73,54,262,38*68
$GLGSV,3,2,09,80,21,191,27,84,20,260,24,83,69,319,26,67,25,085,38*6D
$GLGSV,3,3,09,68,04,133,30*54
$GAGSV,1,1,0,*74
$PQGSV,1,1,0,*73
$PQGSV,1,1,0,*73
$GNGSA,A,3,03,06,12,17,19,24,25,,,,,,1.0,0.7,0.7,1*39
$GNGSA,A,3,66,67,73,74,80,82,83,84,,,,,1.0,0.7,0.7,2*30
$GNVTG,332.8,T,332.8,M,3.0,N,5.5,K,A*3E
$GNRMC,193022.00,A,4948.771822,N,09707.514162,W,3.0,332.8,270619,2.0,E,A*36
$GNGGA,193022.00,4948.771822,N,09707.514162,W,1,12,0.7,229.0,M,-30.0,M,,*4C
$GPGSV,3,1,10,02,52,223,24,03,12,033,33,06,79,088,43,12,52,298,37*76
$GPGSV,3,2,10,17,37,087,36,19,54,080,41,24,19,244,34,25,15,313,28*76
$GPGSV,3,3,10,23,00,000,,28,00,000,*73
$GLGSV,3,1,09,74,30,323,27,66,19,029,33,82,39,053,39,73,54,262,38*6E
$GLGSV,3,2,09,80,21,191,27,84,20,260,24,83,69,319,27,67,25,085,38*6C
$GLGSV,3,3,09,68,04,133,29*5C
$GAGSV,1,1,0,*74
$PQGSV,1,1,0,*73
$PQGSV,1,1,0,*73
$GNGSA,A,3,02,03,06,12,17,19,24,25,,,,,1.0,0.7,0.7,1*3B
$GNGSA,A,3,66,67,73,74,80,82,83,84,,,,,1.0,0.7,0.7,2*30
$GNVTG,332.7,T,332.7,M,3.0,N,5.5,K,A*3E
$GNRMC,193023.00,A,4948.772531,N,09707.514766,W,3.0,332.7,270619,2.0,E,A*36
$GNGGA,193023.00,4948.772531,N,09707.514766,W,1,12,0.7,230.0,M,-30.0,M,,*4B
$GPGSV,3,1,09,03,12,033,34,06,79,088,43,12,52,298,39,17,37,087,35*7C
$GPGSV,3,2,09,19,54,080,41,24,19,244,34,25,15,313,28,23,00,000,*77
$GPGSV,3,3,09,28,00,000,*4A
$GLGSV,3,1,09,74,30,323,27,66,19,029,33,82,39,053,39,73,54,262,39*6F
$GLGSV,3,2,09,80,21,191,29,84,20,260,28,83,69,319,26,67,25,085,38*6F
$GLGSV,3,3,09,68,04,133,28*5D
$GAGSV,1,1,0,*74
$PQGSV,1,1,0,*73
$PQGSV,1,1,0,*73
$GNGSA,A,3,03,06,12,17,19,24,25,,,,,,0.9,0.6,0.7,1*30
$GNGSA,A,3,66,67,73,74,80,82,83,84,,,,,0.9,0.6,0.7,2*39
$GNVTG,334.3,T,334.3,M,3.2,N,5.9,K,A*30
$GNRMC,193024.00,A,4948.773273,N,09707.515451,W,3.2,334.3,270619,2.0,E,A*37
$GNGGA,193024.00,4948.773273,N,09707.515451,W,1,12,0.6,230.0,M,-30.0,M,,*4B
$GPGSV,3,1,10,03,12,033,33,06,79,088,43,12,52,298,39,17,37,087,34*72
